name,latitude,longitude
"Plovdiv, BG",42.15,24.75
"Paris, FR",48.78,2.19
"Amsterdam, NL",52.37,4.89
"Dunkerque, FR",51.03,2.38
"Sandefjord, NO",59.17,10.21
"Bucharest, RO",44.43,26.11
"Paris, FR",48.79,2.49
"Montreal, CA",45.51,-73.59
"Madrid, ES",40.42,-3.7
"Gdansk, PL",54.35,18.65
"Stockholm, SE",59.33,18.07
"Dublin, IE",53.33,-6.25
"Queretaro, MX",20.56,-100.24
"Berlin, DE",52.51,13.36
"Singapore, SG",1.32,103.7
"San Jose, US",37.34,-121.89
"Singapore, SG",1.29,103.85
"Helsinki, FI",60.17,24.94
"Numansdorp, NL",51.73,4.44
"Eindhoven, NL",51.44,5.48
"Hong Kong, HK",22.28,114.17
"Ashburn, US",39.04,-77.49
"Frankfurt, DE",50.11,8.68
"Singapore, SG",1.29,103.85
"Amsterdam, NL",52.37,4.89
"Belgrade, RS",44.87,20.64
"Falkenstein, DE",50.48,12.37
"Lelystad, NL",52.54,5.51
"Virginia Beach, US",36.85,-75.98
"Tel Aviv, IL",32.09,34.89
"Madrid, ES",40.42,-3.7
"Nuremberg, DE",49.45,11.02
"Chicago, US",41.85,-87.65
"Tel Aviv, IL",32.1,34.96
"Fremont, US",37.55,-121.99
"Tallinn, EE",59.44,24.75
"Hong Kong, HK",22.28,114.17
"Frankfurt, DE",50.12,8.68
"Amsterdam, NL",52.38,4.9
"Bogota, CO",4.66,-74.04
"Rome, IT",41.67,12.5
"Sofia, BG",42.7,23.32
"Nuremberg, DE",49.45,11.08
"Frankfurt, DE",50.12,8.68
"Montreal, CA",45.46,-73.57
"Falkenstein, DE",50.48,12.37
"Sao Paulo, BR",-23.55,-46.64
"Stockholm, SE",59.33,18.07
"Nuremberg, DE",49.45,11.08
"Dallas, US",32.78,-96.81
"Kansas City, US",39.1,-94.58
"Moscow, RU",55.75,37.62
"Helsinki, FI",60.17,24.94
"Rotterdam, NL",52.0,4.17
"Melbourne, AU",-37.75,144.76
"Goudswaard, NL",51.79,4.28
"Gdansk, PL",54.35,18.65
"Minsk, BY",53.9,27.57
"Dalles, US",45.59,-121.18
"Frankfurt, DE",50.12,8.68
"Helsinki, FI",60.17,24.94
"Vienna, AT",48.15,16.39
"Dublin, IE",53.32,-6.31
"Hindeloopen, NL",52.94,5.4
"New York, US",40.71,-74.01
"Brummen, NL",52.09,6.16
"Tokyo, JP",35.69,139.69
"Ashburn, US",39.04,-77.49
"Al Muharraq, BH",26.07,50.5
"Vilnius, LT",54.69,25.3
"Vilnius, LT",54.67,25.27
"New Philadelphia, US",40.48,-81.44
"Jerusalem, IL",31.77,35.22
"Springfield, US",38.79,-77.19
"Buffalo, US",42.89,-78.88
"Goteborg, SE",57.74,12.11
"Ashburn, US",39.04,-77.49
"Toronto, CA",43.71,-79.4
"Chicago, US",41.85,-87.65
"Los Angeles, US",34.05,-118.24
"Madrid, ES",40.42,-3.7
"Dallas, US",32.78,-96.81
"Montreal, CA",45.52,-73.47
"Manassas, US",38.75,-77.48
"Los Angeles, US",34.05,-118.24
"Stockholm, SE",59.25,18.12
"Alicante, ES",38.35,-0.48
"Alicante, ES",38.35,-0.48
"New York, US",40.71,-74.01
"New York, US",40.71,-74.01
"Houston, US",29.76,-95.36
"Amsterdam, NL",52.37,4.89
"Tokyo, JP",35.69,139.69
"Guangzhou, CN",23.12,113.25
"Helsinki, FI",60.17,24.94
"Ashburn, US",39.04,-77.49
"Peachtree City, US",33.4,-84.6
"Kyiv, UA",50.41,30.37
"Chiba, JP",35.81,140.12
"Jacksonville, US",30.33,-81.66
"Amsterdam, NL",52.37,4.89
"Tokyo, JP",35.68,139.75
"Amsterdam, NL",52.37,4.89
"Tokyo, JP",35.69,139.69
"Morelia, MX",19.7,-101.18
"Glasgow, GB",55.87,-4.26
"Sao Paulo, BR",-23.55,-46.64
"Jacksonville, US",30.33,-81.66
"Sao Paulo, BR",-23.55,-46.64
"Chicago, US",41.85,-87.65
"Oklahoma City, US",35.47,-97.52
"Khulna, BD",22.81,89.56
"Moscow, RU",55.75,37.62
"Moscow, RU",55.75,37.62
"Moscow, RU",55.75,37.62
"Essen, DE",51.49,7.09
"Amsterdam, NL",52.37,4.89
"Amsterdam, NL",52.38,4.9
"Fortaleza, BR",-3.72,-38.54
"Santa Fe, US",35.69,-105.94
"Riga, LV",56.95,24.11
"Omaha, US",41.26,-95.86
"Toronto, CA",43.71,-79.4
"Shenzhen, CN",22.55,114.07
"Valencia, ES",39.47,-0.38
"Sao Paulo, BR",-23.55,-46.64
"Allentown, US",40.61,-75.49
"Toronto, CA",43.71,-79.4
"Los Angeles, US",34.05,-118.24
"Pittsburgh, US",40.28,-80.08
"Miami, US",25.79,-80.18
"Atlanta, US",33.75,-84.39
"Kyoto, JP",35.02,135.75
"Auckland, NZ",-36.85,174.76
"Houston, US",29.76,-95.36
"Shenzhen, CN",22.55,114.07
"Krasnodar, RU",45.05,38.98
"Sandefjord, NO",59.13,10.22
"Sofia, BG",42.7,23.32
"Jakarta, ID",-6.21,106.85
"Ningbo, CN",29.88,121.55
"Hong Kong, HK",22.28,114.17
"Cachoeiro de Itapemirim, BR",-20.85,-41.11
"Santiago, CL",-33.46,-70.65
"Belo Horizonte, BR",-19.92,-43.94
"Tokyo, JP",35.62,139.75
"Cape Town, ZA",-33.93,18.42
"Frankenburg, AT",48.07,13.49
"Manila, PH",14.6,120.98
"Moscow, RU",55.75,37.62
"Moscow, RU",55.75,37.62
"Pingtung, TW",22.67,120.49
"Hong Kong, HK",22.28,114.17
"Moscow, RU",55.75,37.62
"Krakow, PL",50.08,19.92
"Amsterdam, NL",52.37,4.89
"Palembang, ID",-2.92,104.75
"Belgrade, RS",44.8,20.47
"Venancio Aires, BR",-29.61,-52.19
"Tokyo, JP",35.69,139.69
"Los Angeles, US",34.05,-118.24
"Singapore, SG",1.34,103.89
"Prachin Buri, TH",14.05,101.37
"Prayagraj, IN",25.45,81.85
"Xi'an, CN",34.26,108.93
"Taipei, TW",25.04,121.56
"Cambridge, GB",52.2,0.12
"Warsaw, PL",52.23,21.01
"Saint-Denis, FR",48.94,2.35
"Moscow, RU",55.75,37.62
"Singapore, SG",1.29,103.85
"Maidenhead, GB",51.52,-0.72
"Wroclaw, PL",51.1,17.03
"Moscow, RU",55.75,37.62
"Paris, FR",48.85,2.35
"Amsterdam, NL",52.38,4.9
"Moscow, RU",55.75,37.62
"Tsuen Wan, HK",22.37,114.11
"London, GB",51.51,-0.13
"Munich, DE",48.14,11.58
"Falkenstein, DE",50.48,12.37
"Dublin, IE",53.34,-6.27
"London, GB",51.51,-0.13
"Tirana, AL",41.33,19.82
"Ashburn, US",39.04,-77.49
"Singapore, SG",1.29,103.85
"Falkenstein, DE",50.48,12.37
"Sofia, BG",42.7,23.32
"Lille, FR",50.63,3.06
"Amsterdam, NL",52.37,4.89
"Frankfurt, DE",50.12,8.68
"Frankfurt, DE",50.12,8.68
"Falkenstein, DE",50.48,12.37
"Frankfurt, DE",50.12,8.68
"Paris, FR",48.92,2.38
"Paris, FR",48.85,2.35
"Johannesburg, ZA",-26.12,28.21
"Amsterdam, NL",52.37,4.89
"Singapore, SG",1.29,103.85
"Frankfurt, DE",50.12,8.68
"Frankfurt, DE",50.12,8.68
"Moscow, RU",55.75,37.62
"Falkenstein, DE",50.48,12.37
"Melbourne, AU",-37.81,144.96
"Graz, AT",47.07,15.44
"London, GB",51.44,0.15
"Frankfurt, DE",50.11,8.68
"San Jose, US",37.34,-121.89
"Riga, LV",56.95,24.11
"Bratislava, SK",48.15,17.11
"Saint Petersburg, RU",59.94,30.31
"Mataro, ES",41.61,2.54
"Amsterdam, NL",52.37,4.89
"Singapore, SG",1.29,103.85
"Riga, LV",56.95,24.11
"Sydney, AU",-33.87,151.21
"Turin, IT",45.07,7.69
"Sydney, AU",-33.87,151.21
"Athens, GR",37.98,23.73
"Vienna, AT",48.22,16.4
"Moscow, RU",55.75,37.62
"Eindhoven, NL",51.44,5.48
"London, GB",51.51,-0.13
"Dublin, IE",53.33,-6.25
"Amsterdam, NL",52.37,4.89
"San Jose, US",37.34,-121.89
"San Jose, US",37.34,-121.89
"Copenhagen, DK",55.68,12.57
"Singapore, SG",1.29,103.85
"San Jose, US",37.46,-122.2
"Seoul, KR",37.46,126.71
"Hong Kong, HK",22.28,114.17
"Hannover, DE",52.37,9.73
"Frankfurt, DE",50.12,8.68
"Chisinau, MD",47.01,28.86
"Chisinau, MD",47.01,28.86
"Berlin, DE",52.52,13.41
"Sydney, AU",-33.87,151.21
"Copenhagen, DK",55.68,12.57
"Moscow, RU",55.75,37.62
"Saint Petersburg, RU",59.94,30.31
"Buffalo, US",42.89,-78.88
"Miami, US",25.77,-80.19
"Terneuzen, NL",51.34,3.83
"Helsinki, FI",60.17,24.94
"Timisoara, RO",45.75,21.23
"Frankfurt, DE",50.12,8.68
"Los Angeles, US",34.05,-118.24
"New York, US",40.71,-74.01
"Chisinau, MD",47.01,28.86
"Amsterdam, NL",52.37,4.89
"Loenen aan de Vecht, NL",52.21,5.02
"Falkenstein, DE",50.48,12.37
"Geneva, CH",46.2,6.15
"Johannesburg, ZA",-26.2,28.04
"Philadelphia, US",40.14,-75.38
"Falkenstein, DE",50.48,12.37
"Ashburn, US",39.04,-77.49
"Taichung, TW",24.15,120.68
"Dusseldorf, DE",51.18,6.86
"Amsterdam, NL",52.37,4.89
"Falkenstein, DE",50.48,12.37
"San Jose, US",37.34,-121.89
"Warsaw, PL",52.23,21.01
"Chiba, JP",35.81,140.12
"New York, US",40.8,-74.01
"Stockholm, SE",59.33,18.07
"Taipei, TW",25.05,121.53
"Tokyo, JP",35.62,139.75
"Helsinki, FI",60.17,24.94
"San Jose, US",37.34,-121.89
"Charleston, US",32.85,-79.97
"Enschede, NL",52.22,6.9
"Tallinn, EE",59.44,24.75
"Sapporo, JP",43.07,141.35
"Chicago, US",41.85,-87.65
"Las Vegas, US",36.17,-115.14
"Guangzhou, CN",23.12,113.25
"Warsaw, PL",52.23,21.01
"Paris, FR",48.85,2.35
"Dhaka, BD",23.79,90.37
"Zhenjiang, CN",32.21,119.46
"Islamabad, PK",33.72,73.04
"Paris, FR",48.92,2.38
"Indianapolis, US",39.77,-86.16
"Ashburn, US",39.04,-77.49
"Strasbourg, FR",48.58,7.75
"Los Angeles, US",34.05,-118.24
"Manassas, US",38.75,-77.48
"Buffalo, US",42.89,-78.88
"Columbus, US",39.96,-83.0
"Los Angeles, US",34.05,-118.24
"Los Angeles, US",34.05,-118.24
"Boston, US",42.36,-71.03
"Los Angeles, US",34.05,-118.24
"Seattle, US",47.61,-122.33
"George Town, KY",19.29,-81.37
"Tel Aviv, IL",32.08,34.78
"Manassas, US",38.75,-77.48
"Toronto, CA",43.71,-79.4
"San Jose, US",37.34,-121.89
"Frankfurt, DE",50.11,8.68
"Toronto, CA",43.63,-79.36
"Cypress, US",30.08,-95.42
"Dallas, US",32.78,-96.81
"Chengdu, CN",30.67,104.07
"Buffalo, US",42.89,-78.88
"Dezhou, CN",37.45,116.37
"Dusseldorf, DE",51.22,6.78
"Strasbourg, FR",48.58,7.75
"Tallinn, EE",59.44,24.75
"Ho Chi Minh City, VN",10.82,106.63
"Atlanta, US",33.75,-84.39
"Lang Suan, TH",9.95,99.08
"Frankfurt, DE",50.11,8.71
"Dublin, IE",53.33,-6.25
"Ashburn, US",39.04,-77.49
"Amsterdam, NL",52.37,4.89
"Vienna, AT",48.3,16.36
"Barddhaman, IN",23.26,87.86
"Cyberjaya, MY",2.92,101.66
"Doha, QA",25.29,51.53
"Madrid, ES",40.49,-3.7
"Taipei, TW",25.05,121.53
"Madrid, ES",40.43,-3.62
"Mumbai, IN",19.07,72.88
"Tokyo, JP",35.69,139.69
"Salt Lake City, US",40.76,-111.89
"San Jose, US",37.34,-121.89
"Porlamar, VE",10.96,-63.87
"Amsterdam, NL",52.37,4.89
"Amsterdam, NL",52.37,4.89
"Dallas, US",32.78,-96.81
"Kansas City, US",39.13,-94.56
"Sao Paulo, BR",-23.55,-46.64
"Barddhaman, IN",23.26,87.86
"Springfield, US",37.02,-93.21
"Minneapolis, US",44.98,-93.26
"Anacortes, US",48.51,-122.61
"Taipei, TW",25.05,121.53
"Buffalo, US",42.89,-78.88
"Honolulu, US",21.31,-157.86
"Sao Paulo, BR",-23.53,-46.79
"Los Angeles, US",34.05,-118.24
"Osaka, JP",34.69,135.5
"Dededo Village, GU",13.44,144.79
"Auckland, NZ",-36.85,174.76
"Aktau, KZ",48.03,72.83
"Vina del Mar, CL",-33.04,-71.63
"Surabaya, ID",-7.03,108.02
"Amsterdam, NL",52.37,4.89
"Istanbul, TR",41.01,28.95
"New York, US",40.71,-74.01
"Singapore, SG",1.29,103.85
"Tokyo, JP",35.69,139.69
"Hong Kong, HK",22.28,114.17
"Fortaleza, BR",-3.72,-38.54
"Nanjing, CN",32.06,118.78
"New York, US",40.71,-74.01
"Aachen, DE",50.78,6.08
"San Jose, US",37.39,-122.11
"Hong Kong, HK",22.28,114.17
"Singapore, SG",1.29,103.85
"Fulda, DE",50.55,9.68
"Allentown, US",40.61,-75.49
"Bursa, TR",40.2,29.06
"Moscow, RU",55.75,37.62
"Tsuen Wan, HK",22.37,114.11
"Nanjing, CN",32.06,118.78
"Singapore, SG",1.29,103.85
"Manila, PH",14.6,120.98
"Manila, PH",14.6,120.98
"Taipei, TW",25.05,121.53
"Tehran, IR",35.69,51.42
"Tokyo, JP",35.69,139.69
"Los Angeles, US",34.05,-118.24
"Los Angeles, US",34.05,-118.24
"Nuremberg, DE",49.41,11.16
"Los Angeles, US",34.05,-118.24
"Mashhad, IR",36.3,59.61
"Pierron, US",38.78,-89.6
"Chisinau, MD",47.01,28.86
"Dronten, NL",52.53,5.72
"Kyiv, UA",50.45,30.52
"Yekaterinburg, RU",56.86,60.62
"Singapore, SG",1.37,103.98
"Ashburn, US",39.04,-77.49
"Ivry-sur-Seine, FR",48.82,2.38
"London, GB",51.52,-0.09
"Sarajevo, BA",43.85,18.36
"Frankfurt, DE",50.12,8.68
"Singapore, SG",1.29,103.85
"Chisinau, MD",47.01,28.86
"Grand Rapids, US",42.81,-85.72
"Hong Kong, HK",22.28,114.17
"Amsterdam, NL",52.37,4.89
"Gravelines, FR",50.99,2.13
"Berlin, DE",52.52,13.41
"Vilnius, LT",54.69,25.28
"Frankfurt, DE",50.12,8.68
"Singapore, SG",1.29,103.85
"Stockholm, SE",59.33,18.07
"Douglas, IM",54.15,-4.48
"Istanbul, TR",41.01,28.95
"Aizawl, IN",23.5,92.73
"Noida, IN",28.58,77.33
"Falkenstein, DE",50.48,12.37
"Sandefjord, NO",59.17,10.21
"Frankfurt, DE",50.11,8.68
"Mumbai, IN",19.07,72.88
"Singapore, SG",1.29,103.85
"Helsinki, FI",60.17,24.94
"Frankfurt, DE",50.12,8.68
"Paris, FR",48.85,2.35
"Novosibirsk, RU",55.1,82.77
"Amsterdam, NL",52.37,4.89
"Chisinau, MD",47.01,28.86
"Tirana, AL",41.33,19.82
"Frankfurt, DE",50.12,8.68
"Boxmeer, NL",51.65,5.95
"Sheridan, US",44.8,-106.96
"Falkenstein, DE",50.48,12.37
"Falkenstein, DE",50.48,12.37
"Kathmandu, NP",27.7,85.32
"Paris, FR",48.85,2.35
"Paris, FR",48.85,2.35
"Newark, US",40.74,-74.17
"Paris, FR",48.85,2.35
"Vienna, AT",48.15,16.39
"Frankfurt, DE",50.12,8.68
"Falkenstein, DE",50.48,12.37
"Madrid, ES",40.41,-3.69
"Abu Dhabi, AE",24.43,54.62
"Roubaix, FR",50.69,3.17
"Singapore, SG",1.29,103.85
"Brent, GB",51.52,-0.72
"London, GB",51.51,-0.13
"Falkenstein, DE",50.48,12.37
"Bern, CH",46.95,7.45
"Singapore, SG",1.29,103.85
"Amsterdam, NL",52.37,4.89
"Bratislava, SK",48.15,17.11
"Bratislava, SK",48.15,17.11
"Ashburn, US",39.04,-77.49
"Madrid, ES",40.43,-3.62
"Atlanta, US",33.75,-84.39
"Mumbai, IN",19.07,72.88
"Frankfurt, DE",50.12,8.68
"Belgrade, RS",44.87,20.64
"Ljubljana, SI",46.05,14.51
"Hengelo, NL",52.27,6.79
"Queretaro, MX",20.59,-100.39
"Lauterbourg, FR",48.98,8.18
"Vina del Mar, CL",-33.02,-71.55
"Moscow, RU",55.75,37.62
"Moscow, RU",55.75,37.62
"Amsterdam, NL",52.37,4.89
"Singapore, SG",1.3,103.79
"Santa Clara, US",37.35,-121.96
"Salt Lake City, US",40.76,-111.89
"Toronto, CA",43.71,-79.4
"Piscataway, US",40.5,-74.4
"Toronto, CA",43.71,-79.4
"Tokyo, JP",35.69,139.69
"Tokyo, JP",35.61,139.73
"Tokyo, JP",35.69,139.69
"Durham, US",35.99,-78.9
"Fremont, US",37.55,-121.99
"Gondomar, PT",41.14,-8.53
"Singapore, SG",1.29,103.85
"Chiba, JP",35.81,140.12
"Zevenbergen, NL",51.65,4.6
"Toronto, CA",43.71,-79.4
"Sydney, AU",-33.87,151.21
"Osaka, JP",34.69,135.5
"Zhoukou, CN",33.63,114.63
"Frankfurt, DE",50.1,8.63
"Frankfurt, DE",50.12,8.68
"Frankfurt, DE",50.12,8.68
"Victoria, SC",-4.62,55.42
"Heerde, NL",52.39,6.04
"Moscow, RU",55.75,37.62
"Barddhaman, IN",23.26,87.86
"Amsterdam, NL",52.37,4.89
"Phoenix, US",33.45,-112.07
"Apeldoorn, NL",52.21,5.97
"Karagandy, KZ",49.8,73.1
"Edmonton, CA",53.55,-113.47
"Asuncion, PY",-25.29,-57.65
"Hong Kong, HK",22.28,114.17
"Quimper, FR",48.0,-4.1
"Kyiv, UA",50.45,30.52
"Rotterdam, NL",51.99,4.21
"Amsterdam, NL",52.37,4.9
"Amsterdam, NL",52.37,4.89
"Berlin, DE",52.52,13.41
"Chicago, US",41.85,-87.65
"Frankfurt, DE",50.12,8.68
"Frankfurt, DE",50.12,8.68
"Mumbai, IN",19.03,73.04
"Novosibirsk, RU",55.02,82.93
"Helsinki, FI",60.17,24.94
"Amersfoort, NL",52.16,5.39
"Warsaw, PL",52.23,21.01
"Lisbon, PT",38.73,-9.15
"Moscow, RU",55.75,37.62
"Dubai, AE",25.08,55.31
"Kansas City, US",39.1,-94.58
"Tokyo, JP",35.69,139.69
"Madrid, ES",40.43,-3.62
"Maastricht, NL",50.89,6.05
"Seoul, KR",37.57,126.98
"Stockholm, SE",59.33,18.07
"Munich, DE",48.14,11.58
"Dronten, NL",52.53,5.72
"Sydney, AU",-33.87,151.21
"Singapore, SG",1.29,103.85
"Budapest, HU",47.5,19.04
"Lagos, NG",6.45,3.39
"Frankfurt, DE",50.12,8.68
"Zurich, CH",47.37,8.55
"Amersfoort, NL",52.19,5.42
"Frankfurt, DE",50.12,8.68
"Kansas City, US",39.1,-94.58
"Mumbai, IN",19.07,72.88
"Seattle, US",47.61,-122.33
"Gemert, NL",51.56,5.69
"San Jose, US",37.34,-121.89
"Syracuse, US",43.05,-76.15
"Piscataway, US",40.5,-74.4
"Hong Kong, HK",22.28,114.17
"Stockholm, SE",59.33,18.07
"Eygelshoven, NL",50.89,6.06
"Berlin, DE",52.52,13.41
"Frankfurt, DE",50.12,8.68
"Doha, QA",25.29,51.53
"Rotterdam, NL",52.18,4.45
"Utrecht, NL",52.09,5.12
"Duluth, US",34.0,-84.14
"Durham, US",35.99,-78.9
"Spokane, US",47.68,-117.12
"Sofia, BG",42.7,23.32
"Toronto, CA",43.71,-79.4
"Taipei, TW",25.05,121.53
"Washington, US",38.9,-77.04
"Queretaro, MX",20.56,-100.24
"Los Angeles, US",34.05,-118.24
"Arlington, US",38.84,-77.43
"Los Angeles, US",34.05,-118.24
"Madiun, ID",-7.66,111.33
"Queretaro, MX",20.59,-100.39
"Tokyo, JP",35.62,139.75
"Depok, ID",-6.4,106.82
"Dhaka, BD",23.74,90.38
"Roubaix, FR",50.69,3.17
"Luanda, AO",-8.84,13.23
"Loveland, US",40.4,-105.07
"Bratislava, SK",48.15,17.11
"Kyiv, UA",50.45,30.52
"Tokyo, JP",35.62,139.75
"Bhopal, IN",23.25,77.4
"Helsinki, FI",60.17,24.94
"Stockholm, SE",59.39,17.93
"Nieuw-Beijerland, NL",51.81,4.34
"Ho Chi Minh City, VN",10.82,106.63
"Hanoi, VN",21.02,105.84
"Hanoi, VN",21.02,105.84
"Sandefjord, NO",59.17,10.21
"Seattle, US",47.61,-122.33
"Cotia, BR",-23.6,-46.92
"Ashburn, US",39.04,-77.49
"London, GB",51.51,-0.13
"Tokyo, JP",35.61,139.73
"San Francisco, US",37.77,-122.42
"Rotterdam, NL",52.0,4.17
"Moscow, RU",55.75,37.62
"Brussels, BE",50.85,4.35
"Setubal, PT",38.52,-8.89
"Falkenstein, DE",50.48,12.37
"Lima, US",40.74,-84.11
"New York, US",40.71,-74.01
"Hong Kong, HK",22.33,114.16
"Cyberjaya, MY",2.92,101.66
"Dallas, US",32.78,-96.81
"Los Angeles, US",34.05,-118.24
"Osaka, JP",34.69,135.5
"Miami, US",25.77,-80.19
"Kansas City, US",39.13,-94.56
"Deventer, NL",52.26,6.16
"Hyderabad, IN",17.13,78.41
"Sandefjord, NO",59.17,10.21
"Pretoria, ZA",-25.86,28.19
"Vina del Mar, CL",-33.04,-71.63
"Sofia, BG",42.7,23.32
"Sofia, BG",42.7,23.32
"Istanbul, TR",41.04,29.18
"Kansas City, US",39.1,-94.58
"Lille, FR",50.63,3.06
"Aihara, JP",35.72,139.29
"Hong Kong, HK",22.28,114.17
"Taipei, TW",25.05,121.53
"Randolph, US",40.85,-74.83
"Rio de Janeiro, BR",-22.91,-43.18
"Cotia, BR",-23.6,-46.92
"Sao Leopoldo, BR",-29.76,-51.15
"Hong Kong, HK",22.28,114.17
"Amsterdam, NL",52.37,4.89
"Bengaluru, IN",12.97,77.59
"Buffalo, US",42.89,-78.88
"Jakarta, ID",-6.29,106.72
"Sintra, PT",38.8,-9.38
"Tokyo, JP",35.69,139.69
"Hong Kong, HK",22.28,114.17
"Worcester, US",42.14,-71.52
"Porto Alegre, BR",-30.03,-51.23
"Wuhan, CN",30.59,114.27
"Amsterdam, NL",52.37,4.89
"Belgrade, RS",44.87,20.64
"Estremoz, PT",38.84,-7.59
"Frankfurt, DE",50.1,8.63
"Frankfurt, DE",50.12,8.68
"Frankfurt, DE",50.11,8.68
"Falkenstein, DE",50.48,12.37
"Maastricht, NL",50.87,6.06
"Falkenstein, DE",50.48,12.37
"Miami, US",25.77,-80.19
"Falkenstein, DE",50.48,12.37
"Amsterdam, NL",52.37,4.89
"Amsterdam, NL",52.37,4.89
"Barddhaman, IN",23.26,87.86
"Prague, CZ",50.09,14.42
"Paris, FR",48.85,2.35
"Vienna, AT",48.21,16.37
"Klagenfurt am Worthersee, AT",46.62,14.31
"Lagos, NG",6.45,3.39
"Nuremberg, DE",49.45,11.02
"Frankfurt, DE",50.12,8.68
"Chicago, US",41.85,-87.65
"Prague, CZ",50.09,14.42
"Johannesburg, ZA",-26.2,28.04
"Essen, DE",51.46,7.01
"Frankfurt, DE",50.11,8.68
"Siauliai, LT",55.93,23.32
"Dublin, IE",53.33,-6.25
"Spokane, US",47.68,-117.12
"Singapore, SG",1.29,103.85
"Frankfurt, DE",50.12,8.68
"Frankfurt, DE",50.1,8.63
"Singapore, SG",1.36,103.82
"Nuremberg, DE",49.45,11.02
"Hattiesburg, US",31.33,-89.29
"IJsselstein, NL",52.02,5.04
"Madrid, ES",40.42,-3.7
"Frankfurt, DE",50.12,8.68
"Belgrade, RS",44.8,20.47
"Amsterdam, NL",52.38,4.64
"Seattle, US",47.61,-122.33
"Chisinau, MD",47.01,28.86
"Krakow, PL",50.06,19.94
"Nijmegen, NL",51.86,5.77
"Hengelo, NL",52.05,6.31
"Chicago, US",41.85,-87.65
"Tokyo, JP",35.69,139.69
"Singapore, SG",1.29,103.85
"Moscow, RU",55.75,37.62
"Kolding, DK",55.47,9.88
"Toulouse, FR",43.6,1.44
"Paris, FR",48.85,2.35
"Vienna, AT",48.3,16.36
"Mumbai, IN",19.07,72.88
"Paris, FR",48.85,2.35
"Oradea, RO",47.05,21.92
"Frankfurt, DE",50.11,8.68
"Amsterdam, NL",52.37,4.89
"Ashburn, US",39.04,-77.49
"Yilan, TW",24.76,121.75
"Cebu City, PH",10.38,123.96
"Helsinki, FI",60.17,24.94
"Singapore, SG",1.29,103.85
"Bucharest, RO",44.43,26.11
"Los Angeles, US",34.05,-118.24
"Frankfurt, DE",50.12,8.68
"Quezon City, PH",14.65,121.05
"Jeddah, SA",21.49,39.19
"Almaty, KZ",43.25,76.91
"Vienna, AT",48.21,16.37
"Los Angeles, US",34.05,-118.24
"Karachi, PK",24.86,67.01
"Frankfurt, DE",50.12,8.68
"Frankfurt, DE",50.12,8.68
"Gravelines, FR",50.99,2.13
"Wroclaw, PL",51.11,17.13
"Thessaloniki, GR",40.64,22.93
"Helsinki, FI",60.17,24.94
"Barnstable, US",41.7,-70.3
"Tokyo, JP",35.62,139.75
"Falkenstein, DE",50.48,12.37
"Jakarta, ID",-6.21,106.85
"Sandefjord, NO",59.17,10.21
"Bonn, DE",50.73,7.1
"Ljubljana, SI",46.05,14.51
"Falkenstein, DE",50.48,12.37
"Singapore, SG",1.3,103.79
"Falkenstein, DE",50.48,12.37
"Khmelnytskyi, UA",49.42,26.98
"Stockholm, SE",59.33,18.07
"Aihara, JP",35.72,139.29
"Sydney, AU",-33.87,151.21
"Vilnius, LT",54.69,25.28
"Singapore, SG",1.29,103.85
"Norristown, US",40.12,-75.34
"Singapore, SG",1.29,103.85
"Valencia, ES",39.47,-0.38
"Toronto, CA",43.71,-79.4
"Paris, FR",48.85,2.35
"Tokyo, JP",35.69,139.69
"Bucharest, RO",44.49,26.06
"Moscow, RU",55.75,37.62
"Frankfurt, DE",50.12,8.68
"Bucharest, RO",44.43,26.11
"Dhaka, BD",23.71,90.41
"Moscow, RU",55.75,37.62
"Montreal, CA",45.51,-73.59
"Kemerovo, RU",55.35,86.1
"Las Vegas, US",36.17,-115.14
"Tokyo, JP",35.69,139.69
"Jakarta, ID",-6.21,106.85
"Kansas City, US",39.1,-94.58
"Taipei, TW",25.05,121.53
"Vagos, PT",40.56,-8.68
"Denver, US",39.74,-104.98
"New York, US",40.71,-74.01
"Boardman, US",45.84,-119.7
"Montreal, CA",45.51,-73.59
"Toronto, CA",43.71,-79.4
"Chicago, US",41.85,-87.65
"San Jose, US",37.34,-121.89
"Buffalo, US",42.89,-78.88
"Singapore, SG",1.38,103.96
"Ashburn, US",39.04,-77.49
"Spokane, US",47.68,-117.12
"Elgin, US",42.09,-87.98
"Montreal, CA",45.51,-73.59
"Dallas, US",32.78,-96.81
"Dallas, US",32.78,-96.81
"Dallas, US",32.78,-96.81
"Los Angeles, US",34.05,-118.24
"Tel Aviv, IL",32.08,34.78
"Houston, US",29.76,-95.36
"Sydney, AU",-33.87,151.21
"Roubaix, FR",50.69,3.17
"Amsterdam, NL",52.37,4.89
"Kyiv, UA",50.45,30.52
"Kyiv, UA",50.45,30.52
"Ho Chi Minh City, VN",10.82,106.63
"Amsterdam, NL",52.37,4.89
"Oradea, RO",47.05,21.92
"Falkenstein, DE",50.48,12.37
"Fremont, US",37.55,-121.99
"Frankfurt, DE",50.12,8.68
"Mosgiel, NZ",-45.87,170.35
"Los Angeles, US",34.05,-118.24
"Kannapolis, US",35.67,-80.47
"Bursa, TR",40.2,29.06
"Dhaka, BD",23.87,90.4
"Mumbai, IN",19.07,72.88
"Moscow, RU",55.75,37.62
"Amsterdam, NL",52.37,4.89
"Amsterdam, NL",52.37,4.89
"Rozenburg, NL",51.9,4.25
"Houston, US",29.76,-95.36
"Dunedin, NZ",-45.87,170.5
"Blacktown, AU",-33.8,150.88
"Fremont, US",37.55,-121.99
"Fremont, US",37.55,-121.99
"Tampa, US",27.95,-82.46
"Los Angeles, US",34.05,-118.24
"Liuzhou, CN",24.31,109.39
"Hong Kong, HK",22.28,114.17
"Taipei, TW",25.01,121.47
"Santa Fe, US",35.69,-105.94
"Erfurt, DE",50.98,11.04
"Montreal, CA",45.51,-73.59
"Los Angeles, US",34.05,-118.24
"Uitweg, NL",51.98,5.02
"Montreal, CA",45.51,-73.59
"Melbourne, AU",-37.81,144.96
"Kuala Lumpur, MY",3.14,101.69
"Pretoria, ZA",-25.86,28.19
"Ufa, RU",54.74,55.97
"Kazan, RU",55.79,49.12
"Nova Prata, BR",-28.78,-51.61
"Athens, GR",37.98,23.73
"Sao Paulo, BR",-23.55,-46.64
"Warsaw, PL",52.23,21.01
"Taipei, TW",25.05,121.53
"Moscow, RU",55.75,37.62
"Singapore, SG",1.29,103.85
"Singapore, SG",1.3,103.79
"Hong Kong, HK",22.28,114.17
"Hong Kong, HK",22.28,114.17
"Chongqing, CN",29.56,106.56
"Moscow, RU",55.75,37.62
"Fayetteville, US",36.18,-94.23
"Tokyo, JP",35.69,139.69
"Tokyo, JP",35.69,139.69
"Los Angeles, US",34.05,-118.24
"Moscow, RU",55.75,37.62
"Moscow, RU",55.75,37.62
"San Francisco, US",37.77,-122.42
"Frankfurt, DE",50.11,8.68
"Frankfurt, DE",50.12,8.68
"Vinnytsya, UA",49.23,28.47
"Vienna, AT",48.3,16.36
"Amsterdam, NL",52.37,4.89
"Falkenstein, DE",50.48,12.37
"Arezzo, IT",43.46,11.88
"Santa Clara, US",37.35,-121.96
"London, GB",51.51,-0.13
"Amsterdam, NL",52.37,4.89
"Budapest, HU",47.5,19.04
"Dhaka, BD",23.79,90.37
"Dublin, IE",53.34,-6.27
"Frankfurt, DE",50.12,8.68
"Vaxjo, SE",56.88,14.81
"Berlin, DE",52.52,13.41
"Frankfurt, DE",50.14,8.57
"Frankfurt, DE",50.1,8.63
"Monza, IT",45.71,9.59
"Port Saint Lucie, US",27.45,-80.33
"Girona, ES",41.92,3.16
"Falkenstein, DE",50.48,12.37
"Johannesburg, ZA",-26.2,28.04
"Frankfurt, DE",50.12,8.68
"Cape Town, ZA",-33.93,18.42
"Falkenstein, DE",50.48,12.37
"Nuremberg, DE",49.45,11.08
"Copenhagen, DK",55.68,12.57
"London, GB",51.44,0.15
"Vienna, AT",48.21,16.37
"Hillsboro, US",45.52,-122.99
"Pune, IN",18.52,73.86
"Czestochowa, PL",50.8,19.12
"Amsterdam, NL",52.43,4.92
"Mumbai, IN",19.07,72.88
"Palermo, IT",38.12,13.36
"Ashburn, US",39.04,-77.49
"Ashburn, US",39.04,-77.49
"Bratislava, SK",48.15,17.11
"Brno, CZ",49.2,16.61
"Nuremberg, DE",49.45,11.02
"Zurich, CH",47.37,8.55
"Frankfurt, DE",50.12,8.68
"Singapore, SG",1.29,103.85
"Taipei, TW",25.05,121.53
"London, GB",51.51,-0.13
"Sydney, AU",-33.87,151.21
"Hong Kong, HK",22.37,114.14
"Frankfurt, DE",50.12,8.68
"Oudenhoorn, NL",51.83,4.19
"Helsinki, FI",60.17,24.94
"Stockholm, SE",59.4,17.94
"Naperville, US",42.0,-87.97
"Paris, FR",48.89,2.21
"Mumbai, IN",19.07,72.88
"Miami, US",25.77,-80.19
"Singapore, SG",1.38,103.96
"Johannesburg, ZA",-26.2,28.04
"Hong Kong, HK",22.28,114.17
"Singapore, SG",1.29,103.85
"Frankfurt, DE",50.12,8.68
"Apeldoorn, NL",52.39,6.04
"Spokane, US",47.68,-117.12
"Mumbai, IN",19.07,72.88
"Sirajganj, BD",24.46,89.71
"Dhaka, BD",23.87,90.4
"New York, US",40.71,-74.01
"Montreal, CA",45.51,-73.59
"New York, US",40.86,-74.16
"Queretaro, MX",20.59,-100.39
"Frankfurt, DE",50.12,8.68
"Los Angeles, US",34.05,-118.24
"Nuremberg, DE",49.45,11.08
"Oradea, RO",47.05,21.92
"Frankfurt, DE",50.12,8.68
"Zurich, CH",47.37,8.55
"Warsaw, PL",52.23,21.01
"Seattle, US",47.38,-122.23
"Utrecht, NL",51.96,5.42
"Fredrikstad, NO",59.32,10.91
"Helsinki, FI",60.17,24.94
"Roubaix, FR",50.69,3.17
"Helsinki, FI",60.17,24.94
"Magelang, ID",-7.47,110.22
"Bogota, CO",4.61,-74.08
"Salt Lake City, US",40.76,-111.89
"Miami, US",25.77,-80.19
"Gerakini, GR",40.28,23.44
"Calais, FR",50.99,2.13
"Los Angeles, US",34.05,-118.24
"Helsinki, FI",60.17,24.94
"Chicago, US",41.85,-87.65
"Paris, FR",48.85,2.35
"Paris, FR",48.85,2.35
"London, GB",51.51,-0.13
"Johannesburg, ZA",-26.2,28.04
"Melbourne, AU",-37.81,144.96
"Cape Town, ZA",-33.93,18.42
"Sydney, AU",-33.87,151.21
"Rotterdam, NL",51.92,4.48
"Denver, US",39.74,-104.98
"Amsterdam, NL",52.37,4.89
"Nuremberg, DE",49.45,11.02
"Hyderabad, IN",17.38,78.46
"Falkenstein, DE",50.48,12.37
"Frankfurt, DE",50.12,8.68
"Hyderabad, IN",17.13,78.41
"Amsterdam, NL",52.37,4.89
"Zaanstad, NL",52.67,4.85
"Jakarta, ID",-6.21,106.85
"Batam, ID",1.15,104.02
"Helsinki, FI",60.17,24.94
"San Jose, US",37.34,-121.89
"Amsterdam, NL",52.38,4.64
"Falkenstein, DE",50.48,12.37
"Taipei, TW",25.05,121.53
"Johannesburg, ZA",-26.2,28.04
"Saint Matthews, US",33.66,-80.78
"Los Angeles, US",34.05,-118.24
"Paris, FR",48.85,2.35
"Ashburn, US",39.04,-77.49
"Los Angeles, US",34.05,-118.24
"Ashburn, US",39.04,-77.49
"Falkenstein, DE",50.48,12.37
"Ashburn, US",39.04,-77.49
"Los Angeles, US",33.97,-118.15
"Lahore, PK",31.56,74.35
"Al Fujairah City, AE",25.12,56.34
"Amiens, FR",49.9,2.3
"Grand Rapids, US",42.81,-85.72
"Chicago, US",41.85,-87.65
"Sydney, AU",-33.87,151.21
"Ho Chi Minh City, VN",10.82,106.63
"Ho Chi Minh City, VN",10.82,106.63
"Seoul, KR",37.57,126.98
"Amsterdam, NL",52.37,4.89
"Seattle, US",47.61,-122.33
"Jundiai, BR",-23.19,-46.88
"Queretaro, MX",20.56,-100.24
"Stockholm, SE",59.33,18.07
"Pleven, BG",43.42,24.62
"Buffalo, US",42.89,-78.88
"Frankfurt, DE",50.11,8.68
"Kansas City, US",39.1,-94.58
"Grimsby, CA",43.2,-79.57
"Sao Paulo, BR",-23.6,-46.92
"Sao Paulo, BR",-23.6,-46.92
"Amsterdam, NL",52.37,4.9
"Ogden, US",41.22,-111.97
"Tainan, TW",22.99,120.21
"Taipei, TW",25.05,121.53
"Hong Kong, HK",22.28,114.17
"Raamsdonksveer, NL",51.7,4.87
"Mannheim, DE",49.68,8.55
"Munich, DE",48.14,11.58
"Montevideo, UY",-34.9,-56.19
"Fremont, US",37.55,-121.99
"Sydney, AU",-33.87,151.21
"Perth, AU",-31.95,115.86
"Philadelphia, US",40.08,-75.46
"Bengaluru, IN",12.97,77.59
"Sao Paulo, BR",-23.55,-46.64
"Athens, GR",38.07,23.76
"Helsinki, FI",60.17,24.94
"Frankfurt, DE",50.11,8.68
"Kazan, RU",55.79,49.12
"Manassas, US",38.75,-77.48
"Vladivostok, RU",43.11,131.87
"Mississauga, CA",43.58,-79.66
"Hong Kong, HK",22.28,114.17
"Hong Kong, HK",22.28,114.17
"Oradea, RO",47.05,21.92
"Taipei, TW",24.99,121.3
"Vina del Mar, CL",-33.04,-71.63
"Lima, PE",-12.04,-77.03
"Montevideo, UY",-34.9,-56.19
"Quezon City, PH",14.59,121.06
"Tirana, AL",41.33,19.82
"Mumbai, IN",19.07,72.88
"Hong Kong, HK",22.28,114.17
"Barcelona, ES",41.39,2.16
"Lagos, NG",6.45,3.39
"Frankfurt, DE",50.12,8.68
"Johor Bahru, MY",1.39,103.62
"Utrecht, NL",52.09,5.12
"O'Fallon, US",38.74,-89.67
"Tokyo, JP",35.69,139.69
"Saint Petersburg, RU",59.94,30.31
"Johannesburg, ZA",-26.2,28.04
"Pierron, US",38.78,-89.6
"Chiang Mai, TH",18.79,98.98
"Suining, CN",30.51,105.57
"O'Fallon, US",38.74,-89.67
"London, GB",51.51,-0.13
"Helsinki, FI",60.17,24.94
"Bradford, GB",53.79,-1.75
"Novosibirsk, RU",55.02,82.93
"Warsaw, PL",52.23,21.01
"Helsinki, FI",60.17,24.94
"Mumbai, IN",19.07,72.88
"Frankfurt, DE",50.12,8.68
"Ljubljana, SI",46.24,14.36
"Brent, GB",51.52,-0.72
"Riga, LV",56.95,24.11
"Moscow, RU",55.75,37.62
"Falkenstein, DE",50.48,12.37
"Falkenstein, DE",50.48,12.37
"Sofia, BG",42.7,23.32
"Moscow, RU",55.75,37.62
"Helsinki, FI",60.17,24.94
"Frankfurt, DE",50.1,8.63
"Vilnius, LT",54.69,25.3
"Stockholm, SE",59.33,18.06
"Marseille, FR",43.3,5.38
"Helsinki, FI",60.17,24.94
"Warsaw, PL",52.23,21.01
"Vienna, AT",48.2,16.35
"Vienna, AT",48.3,16.36
"Nuremberg, DE",49.45,11.08
"Constanta, RO",44.32,28.6
"London, GB",51.51,-0.13
"Tallinn, EE",59.44,24.75
"London, GB",51.44,0.15
"Chisinau, MD",47.01,28.86
"Singapore, SG",1.29,103.85
"Warsaw, PL",52.23,21.01
"Vilnius, LT",54.69,25.28
"Riga, LV",56.95,24.11
"Jakarta, ID",-6.21,106.85
"Zurich, CH",47.37,8.55
"Joure, NL",52.97,5.8
"Frankfurt, DE",50.12,8.68
"Sydney, AU",-33.87,151.21
"Milan, IT",45.46,9.19
"Lagos, NG",6.45,3.39
"Frankfurt, DE",50.12,8.68
"Lyon, FR",45.75,4.85
"Frankfurt, DE",50.12,8.68
"Helsinki, FI",60.17,24.94
"Dusseldorf, DE",51.22,6.78
"Dusseldorf, DE",51.22,6.78
"Enschede, NL",52.22,6.9
"Singapore, SG",1.29,103.85
"Athens, GR",37.98,23.73
"Salt Lake City, US",40.76,-111.89
"Salt Lake City, US",40.74,-111.83
"London, GB",51.51,-0.13
"London, GB",51.51,-0.13
"Dhaka, BD",23.71,90.41
"Johor Bahru, MY",1.5,103.74
"Amsterdam, NL",52.38,4.9
"London, GB",51.51,-0.13
"Stjordal, NO",63.47,10.92
"Madrid, ES",40.53,-3.65
"New York, US",40.71,-74.01
"Tokyo, JP",35.69,139.69
"Dhaka, BD",23.74,90.41
"Krakow, PL",50.06,19.94
"Sao Paulo, BR",-23.55,-46.64
"Taipei, TW",25.05,121.53
"Ploiesti, RO",44.95,26.02
"Istanbul, TR",41.01,28.95
"Almere Buiten, NL",52.4,5.28
"Andorra la Vella, AD",42.51,1.52
"Spokane, US",47.68,-117.12
"Amsterdam, NL",52.38,4.64
"Las Vegas, US",36.17,-115.14
"Madrid, ES",40.43,-3.62
"Rheda-Wiedenbruck, DE",51.85,8.3
"Delhi, IN",28.65,77.23
"Prayagraj, IN",25.45,81.85
"Lauterbourg, FR",48.98,8.18
"Almelo, NL",52.36,6.66
"Buffalo, US",42.89,-78.88
"Dortmund, DE",51.51,7.47
"New York, US",40.71,-74.01
"Singapore, SG",1.29,103.85
"Hague, NL",52.08,4.3
"Novosibirsk, RU",55.02,82.93
"Johannesburg, ZA",-26.2,28.04
"Santa Fe, US",35.69,-105.94
"Bangkok, TH",13.75,100.5
"Nijmegen, NL",51.82,5.81
"Helsinki, FI",60.17,24.94
"Moncton, CA",46.09,-64.8
"Karlsruhe, DE",49.0,8.39
"Baku, AZ",40.38,49.89
"Zurich, CH",47.37,8.55
"Birmingham, GB",52.48,-1.9
"Si Racha, TH",12.93,100.88
"Dallas, US",32.78,-96.81
"Hong Kong, HK",22.35,114.18
"Velserbroek, NL",52.43,4.66
"Ankara, TR",39.92,32.85
"Sao Paulo, BR",-23.55,-46.64
"Frankfurt, DE",50.12,8.68
"Frankfurt, DE",50.1,8.63
"Amsterdam, NL",52.37,4.89
"Reykjavik, IS",64.07,-21.94
"Maastricht, NL",50.87,6.06
"Moscow, RU",55.75,37.62
"Vienna, AT",48.21,16.37
"Frankfurt, DE",50.12,8.68
"Assen, NL",53.0,6.56
"Moscow, RU",55.75,37.62
"Helsinki, FI",60.17,24.94
"Cardiff, GB",51.48,-3.18
"Beijing, CN",39.91,116.4
"Enschede, NL",52.22,6.9
"Jeddah, SA",21.49,39.19
"Stockholm, SE",59.33,18.07
"Kendal, GB",54.33,-2.75
"Amsterdam, NL",52.37,4.89
"Dubai, AE",25.08,55.31
"Sydney, AU",-33.87,151.21
"Schwerin, DE",53.65,11.37
"Dallas, US",32.78,-96.81
"Nuremberg, DE",49.45,11.02
"Singapore, SG",1.29,103.85
"Driebergen-Rijsenburg, NL",52.05,5.28
"Timisoara, RO",45.75,21.23
"Budapest, HU",47.5,19.04
"Nuremberg, DE",49.45,11.08
"Amsterdam, NL",52.37,4.89
"Helsinki, FI",60.17,24.94
"Zurich, CH",47.37,8.55
"Frosinone, IT",41.64,13.34
"Fujairah, AE",25.12,56.34
"New York, US",40.71,-74.01
"London, GB",51.51,-0.13
"Seattle, US",47.61,-122.33
"Fremont, US",37.55,-121.99
"Moscow, RU",55.75,37.62
"Amsterdam, NL",52.37,4.89
"Houston, US",29.76,-95.36
"Riga, LV",56.95,24.11
"Dronten, NL",52.53,5.72
"Dronten, NL",52.53,5.72
"Falkenstein, DE",50.48,12.37
"Phoenix, US",33.45,-112.07
"Macerata, IT",43.3,13.45
"Frankfurt, DE",50.12,8.68
"Groningen, NL",53.16,6.38
"Los Angeles, US",34.05,-118.24
"Toronto, CA",43.71,-79.4
"Chisinau, MD",47.01,28.86
"Tokyo, JP",35.69,139.69
"Reston, US",38.96,-77.36
"Osaka, JP",34.69,135.5
"Freetown, SL",8.48,-13.23
"Hong Kong, HK",22.28,114.17
"Amsterdam, NL",52.37,4.89
"Dublin, IE",53.33,-6.25
"Lisbon, PT",38.73,-9.15
"Meppel, NL",52.7,6.19
"Las Vegas, US",36.17,-115.14
"Frankfurt, DE",50.11,8.68
"Tokyo, JP",35.69,139.69
"Tallinn, EE",59.44,24.75
"Kathmandu, NP",27.7,85.32
"San Jose, US",37.34,-121.89
"Sydney, AU",-33.87,151.21
"Cyberjaya, MY",2.92,101.66
"Frankfurt, DE",50.12,8.68
"Rotterdam, NL",52.0,4.17
"Tokyo, JP",35.69,139.69
"Taipei, TW",25.05,121.53
"Islamabad, PK",33.72,73.04
"Fayetteville, US",36.1,-93.99
"Hulhumale, MV",4.21,73.54
"Spokane, US",47.68,-117.12
"Singapore, SG",1.29,103.85
"London, GB",51.51,-0.13
"Ashburn, US",39.04,-77.49
"Buffalo, US",42.89,-78.88
"Falkenstein, DE",50.48,12.37
"Moscow, RU",55.75,37.62
"Houston, US",29.76,-95.36
"Vancouver, CA",49.25,-123.12
"Fremont, US",37.55,-121.99
"Spokane, US",47.68,-117.12
"Seoul, KR",37.57,126.98
"Ashburn, US",39.04,-77.49
"Jakarta, ID",-6.21,106.85
"Shenzhen, CN",22.55,114.07
"Bursa, TR",40.2,29.06
"Jacksonville, US",30.33,-81.66
"Muscat, OM",23.58,58.41
"Kyiv, UA",50.45,30.52
"Siauliai, LT",55.93,23.32
"Hyderabad, IN",17.38,78.46
"Novi Travnik, BA",44.17,17.66
"Miami, US",25.77,-80.19
"Tampa, US",27.77,-82.68
"Santa Clarita, US",34.16,-118.65
"Tbilisi, GE",41.69,44.83
"Amsterdam, NL",52.38,4.9
"Santa Fe, US",35.69,-105.94
"Augustdorf, DE",51.91,8.73
"Guatemala City, GT",14.64,-90.51
"Buffalo, US",42.89,-78.88
"Los Angeles, US",34.05,-118.24
"Vienna, AT",48.21,16.37
"Bengaluru, IN",12.97,77.59
"Frankfurt, DE",50.12,8.68
"Sandefjord, NO",59.17,10.21
"Sao Paulo, BR",-23.55,-46.64
"Berlin, DE",52.52,13.41
"Singapore, SG",1.29,103.85
"Auckland, NZ",-36.85,174.76
"Janauba, BR",-15.8,-43.3
"Sao Paulo, BR",-23.6,-46.92
"Oradea, RO",47.05,21.92
"Taipei, TW",25.05,121.53
"San Jose, US",37.34,-121.89
"Santiago, CL",-33.46,-70.65
"Apeldoorn, NL",52.21,5.97
"Krakow, PL",50.01,20.08
"Guangzhou, CN",23.12,113.25
"Moscow, RU",55.75,37.62
"Hong Kong, HK",22.28,114.17
"Hong Kong, HK",22.28,114.17
"Recife, BR",-8.05,-34.88
"Seoul, KR",37.57,126.98
"Sydney, AU",-33.87,151.21
"Hobart, AU",-42.88,147.33
"Duren, DE",50.8,6.49
"Prayagraj, IN",25.45,81.85
"Hong Kong, HK",22.28,114.17
"Mumbai, IN",19.07,72.88
"Tehran, IR",35.69,51.42
"Paris, FR",48.85,2.35
"Baku, AZ",40.38,49.89
"Zurich, CH",47.37,8.55
"Saint Petersburg, RU",59.94,30.31
"Berlin, DE",52.52,13.41
"Chisinau, MD",47.01,28.86
"Johannesburg, ZA",-26.2,28.04
"Kyiv, UA",50.45,30.52
"Tel Aviv, IL",32.08,34.78
"London, GB",51.51,-0.13
"Chisinau, MD",47.01,28.86
"Prague, CZ",50.09,14.42
"Moscow, RU",55.75,37.62
"Amsterdam, NL",52.36,4.89
"London, GB",51.51,-0.13
"Tomsk, RU",56.5,84.98
"Amsterdam, NL",52.37,4.89
"Salt Lake City, US",40.76,-111.89
"Motiers, CH",46.91,6.61
"Los Angeles, US",34.05,-118.24
"Toronto, CA",43.71,-79.4
"Singapore, SG",1.34,103.89
"Medellin, CO",6.25,-75.56
"Toronto, CA",43.71,-79.4
"Mannheim, DE",49.5,8.48
"London, GB",51.51,-0.13
"Zurich, CH",47.37,8.55
"Moscow, RU",55.75,37.62
"Saint Petersburg, RU",59.94,30.31
"Prague, CZ",50.09,14.42
"Bucharest, RO",44.43,26.11
"Roubaix, FR",50.69,3.17
"Amsterdam, NL",52.37,4.89
"Moscow, RU",55.75,37.62
"Pavlodar, KZ",52.28,76.97
"Lajeado, BR",-29.47,-51.96
"Mumbai, IN",19.07,72.88
"Tokyo, JP",35.69,139.69
"Singapore, SG",1.29,103.85
"Moscow, RU",55.75,37.62
"Bucharest, RO",44.43,26.11
"Staten Island, US",40.56,-74.14
"Nairobi, KE",-1.28,36.82
"Reston, US",38.96,-77.36
"Vienna, AT",48.21,16.37
"Amsterdam, NL",52.25,5.08
"Bursa, TR",40.2,29.06
"Houston, US",29.76,-95.36
"Doetinchem, NL",51.96,6.29
"Falkenstein, DE",50.48,12.37
"Vienna, AT",48.21,16.37
"Los Angeles, US",34.05,-118.24
"Frankfurt, DE",50.19,8.68
"London, GB",51.51,-0.13
"Dallas, US",32.78,-96.81
"Chisinau, MD",47.01,28.86
"Vienna, AT",48.21,16.37
"Sao Paulo, BR",-23.55,-46.64
"Kuala Lumpur, MY",3.16,101.68
"Singapore, SG",1.32,103.7
"Vienna, AT",48.21,16.37
"Amsterdam, NL",52.37,4.89
"Berlin, DE",52.52,13.41
"Meppel, NL",52.7,6.19
"Paris, FR",48.85,2.35
"Singapore, SG",1.29,103.85
"Hanoi, VN",21.02,105.84
"Dhaka, BD",23.79,90.37
"Tokyo, JP",35.69,139.69
"Singapore, SG",1.29,103.85
"Roubaix, FR",50.69,3.17
"Prague, CZ",50.09,14.42
"Ashburn, US",39.04,-77.49
"Milan, IT",45.32,9.2
"Zelhem, NL",52.01,6.35
"Frankfurt, DE",50.1,8.63
"Tallinn, EE",59.44,24.75
"Manhattan, US",41.05,-73.95
"Driebergen-Rijsenburg, NL",52.05,5.28
"Oradea, RO",47.05,21.92
"Sydney, AU",-33.87,151.21
"Buffalo, US",42.89,-78.88
"Charleston, US",32.85,-79.97
"Brisbane, AU",-27.47,153.03
"Calgary, CA",51.05,-114.09
"Stockholm, SE",59.33,18.07
"Frankfurt, DE",50.12,8.68
"Moscow, RU",55.75,37.62
"Vienna, AT",48.2,16.35
"Frankfurt, DE",50.1,8.63
"Oradea, RO",47.05,21.92
"Warsaw, PL",52.21,21.01
"Jakarta, ID",-6.23,106.83
"Porto, PT",41.15,-8.61
"Nuremberg, DE",49.45,11.08
"London, GB",51.51,-0.13
"Nyiregyhaza, HU",47.96,21.72
"Toronto, CA",43.71,-79.4
"Brussels, BE",50.85,4.35
"Hillsboro, US",45.52,-122.99
"Amsterdam, NL",52.38,4.9
"Chiba, JP",35.81,140.12
"Moscow, RU",55.75,37.62
"Breda, NL",51.47,4.66
"Winnipeg, CA",49.88,-97.15
"Toronto, CA",43.71,-79.4
"Chicago, US",41.85,-87.65
"Dubai, AE",25.08,55.31
"Hong Kong, HK",22.28,114.17
"Tampa, US",27.95,-82.46
"Arlington, US",38.84,-77.43
"Dallas, US",32.78,-96.81
"Vancouver, CA",49.25,-123.12
"Santa Clara, US",37.35,-121.96
"Strijen, NL",51.75,4.55
"Frankfurt, DE",50.11,8.68
"Montreal, CA",45.51,-73.59
"Montreal, CA",45.51,-73.59
"Singapore, SG",1.29,103.85
"Singapore, SG",1.29,103.85
"Houston, US",29.76,-95.36
"Montreal, CA",45.5,-73.56
"San Jose, US",37.34,-121.89
"Frankfurt, DE",50.12,8.68
"Sydney, AU",-33.87,151.21
"Fremont, US",37.55,-121.99
"Dallas, US",32.78,-96.81
"Calgary, CA",51.05,-114.09
"Los Angeles, US",33.98,-118.1
"Houston, US",29.76,-95.36
"Houston, US",29.76,-95.36
"Perth, AU",-31.95,115.86
"Sydney, AU",-33.87,151.21
"London, GB",51.51,-0.13
"Charlotte, US",35.23,-80.84
"Philadelphia, US",39.95,-75.16
"Sao Paulo, BR",-23.55,-46.64
"Odesa, UA",46.49,30.74
"Dallas, US",32.78,-96.81
"Chiba, JP",35.81,140.12
"Dallas, US",32.78,-96.81
"Dallas, US",32.78,-96.81
"Jakarta, ID",-6.39,106.96
"Naha, JP",26.34,127.8
"Chicago, US",41.85,-87.65
"Fremont, US",37.55,-121.99
"San Francisco, US",37.77,-122.42
"Hyderabad, IN",17.44,78.41
"Frankfurt, DE",50.12,8.68
"Oradea, RO",47.05,21.92
"Oradea, RO",47.05,21.92
"Toronto, CA",43.71,-79.4
"Rochester, US",43.1,-77.88
"Hong Kong, HK",22.37,114.14
"Guelph, CA",43.55,-80.26
"Sao Paulo, BR",-23.55,-46.64
"Eygelshoven, NL",50.89,6.06
"Amsterdam, NL",52.37,4.89
"Amsterdam, NL",52.37,4.89
"Sao Paulo, BR",-23.55,-46.64
"San Jose, US",37.34,-121.89
"Tampa, US",27.77,-82.68
"Skopje, MK",42.0,21.43
"Sydney, AU",-33.87,151.21
"Singapore, SG",1.29,103.85
"Santa Fe, US",35.69,-105.94
"Ciudad Juarez, MX",31.74,-106.45
"Los Angeles, US",34.05,-118.24
"Los Angeles, US",34.05,-118.24
"Osaka, JP",34.69,135.5
"Los Angeles, US",34.05,-118.24
"Mumbai, IN",19.07,72.88
"Kansas City, US",39.1,-94.58
"Secaucus, US",40.8,-74.06
"Zandvoort, NL",52.37,4.53
"Dallas, US",32.78,-96.8
"Shanghai, CN",31.22,121.46
"Vina del Mar, CL",-33.04,-71.63
"Campina Grande, BR",-7.23,-35.88
"Sao Paulo, BR",-23.55,-46.64
"Singapore, SG",1.29,103.85
"Bangkok, TH",13.75,100.5
"Taipei, TW",25.05,121.53
"Hong Kong, HK",22.28,114.17
"Dallas, US",32.78,-96.81
"Sao Paulo, BR",-23.55,-46.64
"Campinas, BR",-23.03,-46.98
"Sao Paulo, BR",-23.55,-46.64
"Falkenstein, DE",50.48,12.37
"Montevideo, UY",-34.9,-56.19
"Sao Paulo, BR",-23.55,-46.64
"Frederico Westphalen, BR",-27.36,-53.39
"Hong Kong, HK",22.28,114.17
"Guangzhou, CN",23.12,113.25
"Warsaw, PL",52.23,21.01
"Bayamon, PR",18.19,-66.31
"Falkenstein, DE",50.48,12.37
"Pierron, US",38.78,-89.56
"Nuremberg, DE",49.45,11.08
"O'Fallon, US",38.74,-89.67
"Miami, US",25.77,-80.19
"Los Angeles, US",34.05,-118.24
"Taipei, TW",25.01,121.47
"Los Angeles, US",34.05,-118.24
"Curico, CL",-34.98,-71.24
"Korolev, RU",55.91,37.83
"O'Fallon, US",38.74,-89.67
"London, GB",51.51,-0.13
"Gondomar, PT",41.14,-8.53
"Amsterdam, NL",52.37,4.89
"Moscow, RU",55.75,37.62
"New York, US",40.71,-74.01
"Warsaw, PL",52.23,21.01
"Roubaix, FR",50.69,3.17
"Copenhagen, DK",55.68,12.57
"Dubai, AE",25.08,55.31
"Budapest, HU",47.5,19.04
"Falkenstein, DE",50.48,12.37
"Roubaix, FR",50.69,3.17
"Frankfurt, DE",50.12,8.68
"Vienna, AT",48.3,16.36
"Barcelona, ES",41.39,2.16
"Travers, CH",46.94,6.68
"Marseille, FR",43.37,5.35
"Maastricht, NL",50.87,6.06
"Warsaw, PL",52.23,21.01
"Amsterdam, NL",52.37,4.89
"Limburg an der Lahn, DE",50.38,8.05
"Denver, US",39.74,-104.98
"Singapore, SG",1.29,103.85
"London, GB",51.51,-0.13
"Dublin, IE",53.33,-6.25
"Amsterdam, NL",52.37,4.89
"Vilnius, LT",54.69,25.3
"Charleston, US",32.85,-79.97
"Stockholm, SE",59.33,18.07
"Amsterdam, NL",52.37,4.89
"Milan, IT",45.46,9.19
"Saint Petersburg, RU",59.94,30.31
"Falkenstein, DE",50.48,12.37
"Helsinki, FI",60.17,24.94
"Santa Fe, US",35.69,-105.94
"Vilnius, LT",54.69,25.28
"Bucharest, RO",44.43,26.11
"London, GB",51.51,-0.13
"Nuremberg, DE",49.45,11.08
"Amsterdam, NL",52.37,4.89
"Helsinki, FI",60.17,24.94
"Helsinki, FI",60.17,24.94
"Amsterdam, NL",52.37,4.89
"Falkenstein, DE",50.48,12.37
"Helsinki, FI",60.17,24.94
"Warsaw, PL",52.23,21.01
"Falkenstein, DE",50.48,12.37
"Bucharest, RO",44.49,26.17
"Roubaix, FR",50.69,3.17
"Helsinki, FI",60.17,24.94
"Newark, US",40.82,-74.45
"Stockholm, SE",59.25,18.12
"Prague, CZ",50.09,14.42
"Larnaca, CY",34.92,33.63
"Northampton, GB",52.4,-0.72
"Copenhagen, DK",55.68,12.57
"Singapore, SG",1.33,103.72
"Saint Petersburg, RU",59.94,30.31
"Singapore, SG",1.29,103.85
"Jakarta, ID",-6.18,106.83
"Mainz, DE",49.98,8.28
"Thuwal, SA",22.28,39.11
"Utrecht, NL",52.09,5.12
"Beijing, CN",39.91,116.4
"Ashburn, US",39.04,-77.49
"Dallas, US",32.78,-96.81
"Milan, IT",45.32,9.2
"Auckland, NZ",-36.85,174.76
"Kazan, RU",55.79,49.12
"Frankfurt, DE",50.12,8.68
"Amsterdam, NL",52.37,4.89
"Moscow, RU",55.75,37.62
"Coventry, GB",52.41,-1.51
"Singapore, SG",1.29,103.85
"Miami, US",25.77,-80.19
"New York, US",40.71,-74.01
"Newark, US",40.74,-74.17
"West Valley City, US",40.49,-111.94
"Johor Bahru, MY",1.5,103.74
"New York, US",40.71,-74.01
"San Jose, US",37.34,-121.89
"Dallas, US",32.78,-96.81
"Sydney, AU",-33.87,151.21
"Chisinau, MD",47.01,28.86
"Hong Kong, HK",22.28,114.17
"Hong Kong, HK",22.31,114.17
"Zurich, CH",47.37,8.55
"Frankfurt, DE",50.12,8.68
"Montreal, CA",45.51,-73.59
"Montreal, CA",45.51,-73.59
"Chisinau, MD",47.01,28.86
"Dusseldorf, DE",51.22,6.78
"Riga, LV",56.95,24.11
"Los Angeles, US",34.05,-118.24
"Singapore, SG",1.29,103.85
"Springfield, US",38.79,-77.19
"Prague, CZ",50.09,14.42
"Warsaw, PL",52.23,21.01
"Paris, FR",48.85,2.35
"London, GB",51.51,-0.13
"Bucharest, RO",44.49,26.06
"Moscow, RU",55.75,37.62
"Warsaw, PL",52.23,21.01
"Amsterdam, NL",52.38,4.9
"New York, US",40.71,-74.01
"Vienna, AT",48.2,16.39
"Falkenstein, DE",50.48,12.37
"Tokyo, JP",35.52,139.72
"Nuremberg, DE",49.45,11.08
"Warsaw, PL",52.23,21.01
"Mumbai, IN",19.07,72.88
"Milan, IT",45.46,9.19
"Charlotte, US",35.23,-80.84
"Eygelshoven, NL",50.89,6.06
"Phnom Penh, KH",11.56,104.92
"Toronto, CA",43.71,-79.4
"Jakarta, ID",-6.21,106.85
"Helsinki, FI",60.17,24.94
"Overath, DE",50.93,7.28
"Hong Kong, HK",22.28,114.17
"Hong Kong, HK",22.28,114.17
"Kansas City, US",39.1,-94.58
"Singapore, SG",1.34,103.89
"Dublin, IE",53.33,-6.25
"Frankfurt, DE",50.19,8.68
"Tokyo, JP",35.69,139.69
"Salt Lake City, US",40.76,-111.89
"Qormi, MT",35.88,14.47
"Falkenstein, DE",50.48,12.37
"Tokyo, JP",35.69,139.69
"Pyongyang, KP",39.03,125.75
"Amersfoort, NL",52.16,5.39
"Rohrbach in Oberosterreich, AT",48.57,13.99
"Tirana, AL",41.32,19.93
"Tirana, AL",41.32,19.93
"Arnhem, NL",51.98,5.91
"Meppel, NL",52.7,6.19
"Amsterdam, NL",52.37,4.89
"Helsinki, FI",60.17,24.94
"Nuremberg, DE",49.45,11.08
"Sydney, AU",-33.87,151.21
"Lekkerkerk, NL",51.9,4.68
"Hong Kong, HK",22.28,114.17
"Hobart, AU",-42.88,147.33
"Islamabad, PK",33.72,73.04
"Bucharest, RO",44.43,26.11
"Chicago, US",41.85,-87.65
"Tallinn, EE",59.44,24.75
"Timisoara, RO",45.75,21.23
"Montreal, CA",45.51,-73.59
"Vancouver, CA",49.27,-122.95
"Batam, ID",1.13,104.07
"Buffalo, US",42.89,-78.88
"Stratford, NZ",-39.34,174.28
"Conroe, US",30.44,-95.54
"Nuremberg, DE",49.41,11.16
"Berlin, DE",52.4,13.07
"Surakarta, ID",-7.56,110.83
"Dhaka, BD",23.79,90.37
"Dunkerque, FR",51.03,2.38
"Khmelnytskyi, UA",49.42,26.98
"Kyiv, UA",50.45,30.52
"Thi Tran Dong Trieu, VN",20.94,106.33
"Moscow, RU",55.75,37.62
"Roubaix, FR",50.69,3.17
"London, GB",51.51,-0.13
"Catania, IT",37.5,15.09
"Zutphen, NL",52.14,6.2
"Sydney, AU",-33.87,151.21
"Frankfurt, DE",50.12,8.68
"Ho Chi Minh City, VN",10.82,106.63
"St. Louis, US",38.63,-90.2
"Cincinnati, US",39.13,-84.51
"Atlanta, US",33.75,-84.39
"Iron Mountain, US",45.82,-88.07
"Ashburn, US",39.04,-77.49
"Jonkoping, SE",57.78,14.16
"Chumphon, TH",10.5,99.18
"Jessore, BD",23.17,89.21
"Maastricht, NL",50.89,6.05
"Seoul, KR",37.57,126.98
"Bursa, TR",40.2,29.06
"Logrono, ES",42.47,-2.45
"Amsterdam, NL",52.37,4.89
"Elk Grove, US",38.41,-121.37
"Tel Aviv, IL",32.08,34.78
"Atlanta, US",33.75,-84.39
"Isfahan, IR",32.65,51.67
"Amsterdam, NL",52.37,4.89
"Tampa, US",27.95,-82.46
"Fremont, US",37.55,-121.99
"Singapore, SG",1.29,103.85
"Buffalo, US",42.89,-78.88
"Valley Forge, US",40.1,-75.47
"Los Angeles, US",34.05,-118.24
"Ashburn, US",39.04,-77.49
"Tokyo, JP",35.69,139.69
"Miami, US",25.77,-80.19
"Kansas City, US",39.1,-94.58
"Sofia, BG",42.7,23.32
"Amsterdam, NL",52.37,4.89
"Kazan, RU",55.79,49.12
"Auckland, NZ",-36.85,174.76
"Lima, PE",-12.04,-77.03
"Hong Kong, HK",22.28,114.17
"Lima, PE",-12.04,-77.03
"Oradea, RO",47.05,21.92
"Dallas, US",32.78,-96.81
"Sao Paulo, BR",-23.55,-46.64
"Sao Paulo, BR",-23.55,-46.64
"Santiago, CL",-33.46,-70.65
"Dhaka, BD",23.87,90.4
"Andrews, US",33.45,-79.56
"Sevilla, ES",37.38,-5.97
"Thessaloniki, GR",40.64,22.93
"Singapore, SG",1.29,103.85
"Frederico Westphalen, BR",-27.36,-53.39
"Saint Petersburg, RU",59.94,30.31
"Tsuen Wan, HK",22.37,114.11
"Hong Kong, HK",22.29,114.16
"Gostynin, PL",52.43,19.46
"Manila, PH",14.6,120.98
"Bangkok, TH",13.75,100.5
"Tallinn, EE",59.44,24.75
"Shaoxing, CN",30.0,120.58
"Frankfurt, DE",50.12,8.68
"Saint Petersburg, RU",59.94,30.31
"Newton, US",42.34,-71.21
"Nuremberg, DE",49.41,11.16
"Jakarta, ID",-6.21,106.85
"Frankfurt, DE",50.12,8.68
"Hong Kong, HK",22.28,114.17
"O'Fallon, US",38.74,-89.67
"Mumbai, IN",19.12,72.98
"Chicago, US",41.85,-87.65
"Tirana, AL",41.33,19.82
"Lisbon, PT",38.73,-9.15
"Frankfurt, DE",50.1,8.63
"Paris, FR",48.94,2.35
"Goteborg, SE",57.71,11.97
"Seoul, KR",37.57,126.98
"Zurich, CH",47.37,8.55
"Nuremberg, DE",49.45,11.02
"Dallas, US",32.78,-96.81
"Zurich, CH",47.37,8.55
"Falkenstein, DE",50.48,12.37
"Malaga, ES",36.72,-4.42
"Gravelines, FR",50.99,2.13
"Warsaw, PL",52.23,21.05
"Vienna, AT",48.15,16.39
"Frankfurt, DE",50.12,8.68
"Brussels, BE",50.85,4.35
"Amsterdam, NL",52.37,4.89
"Budapest, HU",47.5,19.04
"Frankfurt, DE",50.12,8.68
"Milan, IT",45.46,9.19
"Moscow, RU",55.75,37.62
"Sandefjord, NO",59.17,10.21
"Klagenfurt am Worthersee, AT",46.62,14.31
"Zagreb, HR",45.81,15.98
"Amsterdam, NL",52.37,4.89
"Amsterdam, NL",52.37,4.89
"Falkenstein, DE",50.48,12.37
"Falkenstein, DE",50.48,12.37
"Amsterdam, NL",52.37,4.89
"Bucharest, RO",44.43,26.11
"Stockholm, SE",59.33,18.07
"Melbourne, AU",-37.75,144.76
"Frankfurt, DE",50.12,8.68
"Singapore, SG",1.3,103.79
"Bucharest, RO",44.43,26.11
"Helsinki, FI",60.17,24.94
"Roubaix, FR",50.69,3.17
"Calais, FR",50.99,2.13
"Warsaw, PL",52.21,21.01
"Amsterdam, NL",52.37,4.89
"Santa Clara, US",37.35,-121.96
"Hamburg, DE",53.44,10.38
"Seattle, US",47.61,-122.33
"Reykjavik, IS",64.14,-21.9
"Oslo, NO",59.91,10.75
"Toronto, CA",43.71,-79.4
"Dnipro, UA",48.47,35.04
"Tallinn, EE",59.44,24.75
"Brno, CZ",49.2,16.61
"Tokyo, JP",35.65,139.73
"Amsterdam, NL",52.37,4.89
"Stockholm, SE",59.33,18.07
"Chicago, US",41.85,-87.65
"Tehran, IR",35.69,51.42
"Porto, PT",41.15,-8.61
"Helsinki, FI",60.17,24.94
"Miami, US",25.77,-80.19
"Hillsboro, US",45.52,-122.99
"Frankfurt, DE",50.12,8.68
"Hong Kong, HK",22.33,114.16
"New York, US",40.71,-74.01
"Toronto, CA",43.71,-79.4
"Cardiff, GB",51.48,-3.18
"Salt Lake City, US",40.76,-111.89
"Moscow, RU",55.95,37.5
"Toronto, CA",43.71,-79.4
"Falkenstein, DE",50.48,12.37
"Woking, GB",51.32,-0.56
"Duiven, NL",51.95,6.01
"Piscataway, US",40.5,-74.4
"Moscow, RU",55.75,37.62
"Lenoir City, US",35.8,-84.26
"New York, US",40.71,-74.01
"Mount Prospect, US",42.07,-87.94
"Santa Clara, US",37.35,-121.96
"Bangkok, TH",13.75,100.5
"New York, US",40.71,-74.01
"Singapore, SG",1.29,103.85
"Roubaix, FR",50.69,3.17
"Yogyakarta, ID",-7.76,110.43
"Singapore, SG",1.29,103.85
"Singapore, SG",1.29,103.85
"Taipei, TW",25.05,121.53
"Seoul, KR",37.57,126.98
"Frankfurt, DE",50.12,8.68
"Spokane, US",47.68,-117.12
"Los Angeles, US",34.05,-118.24
"Amsterdam, NL",52.37,4.89
"Atlanta, US",33.95,-84.55
"Bengaluru, IN",13.23,77.58
"Saint Petersburg, RU",59.94,30.31
"Singapore, SG",1.29,103.85
"Yogyakarta, ID",-7.8,110.36
"Rheda-Wiedenbruck, DE",51.85,8.3
"Oradea, RO",47.05,21.92
"Frankfurt, DE",50.12,8.68
"Gdansk, PL",54.3,18.63
"Zaragoza, ES",41.66,-0.88
"Mumbai, IN",19.07,72.88
"Tallaght, IE",53.29,-6.37
"Frankfurt, DE",50.1,8.63
"Fujairah, AE",25.12,56.34
"Meiningen, DE",50.3,10.47
"Zurich, CH",47.37,8.55
"Amsterdam, NL",52.37,4.89
"Chicago, US",41.85,-87.65
"Tokyo, JP",35.69,139.69
"Roubaix, FR",50.69,3.17
"New York, US",40.71,-74.01
"Ashburn, US",39.04,-77.49
"Ashburn, US",39.04,-77.49
"Paris, FR",48.85,2.35
"Kyoto, JP",35.02,135.75
"Helsinki, FI",60.17,24.94
"Ashburn, US",39.04,-77.49
"Helsinki, FI",60.17,24.94
"Nynashamn, SE",58.9,17.95
"Moscow, RU",55.75,37.62
"Singapore, SG",1.29,103.85
"Sylva, US",35.37,-83.23
"Sofia, BG",42.7,23.32
"Tbilisi, GE",41.69,44.83
"Dusseldorf, DE",51.22,6.78
"Helsinki, FI",60.17,24.94
"Frankfurt, DE",50.1,8.63
"Pittsburgh, US",40.44,-80.0
"Reykjavik, IS",64.14,-21.9
"Reek, NL",51.75,5.68
"Vienna, AT",48.12,16.27
"Karlsruhe, DE",49.0,8.39
"Helsinki, FI",60.17,24.94
"Hong Kong, HK",22.28,114.17
"Patna, IN",25.59,85.14
"Stockholm, SE",59.33,18.07
"Samut Prakan, TH",13.6,100.6
"Amsterdam, NL",52.38,4.9
"New York, US",40.71,-74.01
"Zwolle, NL",52.7,6.19
"Paris, FR",48.85,2.35
"Stockholm, SE",59.32,18.13
"Dallas, US",32.78,-96.81
"Sisak, HR",45.47,16.38
"Saint-Quentin-en-Yvelines, FR",48.57,2.17
"Frankfurt, DE",50.12,8.68
"Frankfurt, DE",50.1,8.63
"Delhi, IN",28.65,77.23
"Frankfurt, DE",50.12,8.68
"Singapore, SG",1.38,103.96
"Dallas, US",32.78,-96.81
"Tokyo, JP",35.62,139.75
"Amsterdam, NL",52.37,4.89
"Maastricht, NL",50.87,6.06
"Lappeenranta, FI",61.06,28.19
"Dusseldorf, DE",51.22,6.78
"Roubaix, FR",50.69,3.17
"Sydney, AU",-33.78,150.93
"Amsterdam, NL",52.37,4.89
"Montreal, CA",45.51,-73.59
"Coventry, GB",52.41,-1.51
"Manassas, US",38.75,-77.48
"Assen, NL",53.0,6.56
"Nuremberg, DE",49.45,11.08
"Dublin, IE",53.34,-6.27
"Amsterdam, NL",52.37,4.89
"Roubaix, FR",50.69,3.17
"Johannesburg, ZA",-26.2,28.04
"Taipei, TW",25.01,121.47
"Oss, NL",51.77,5.52
"Kleve, DE",51.79,6.14
"Los Angeles, US",34.05,-118.24
"Seoul, KR",37.57,126.98
"Boydton, US",36.67,-78.39
"Singapore, SG",1.29,103.85
"Sandefjord, NO",59.17,10.21
"Moscow, RU",55.75,37.62
"Reims, FR",49.27,4.03
"Singapore, SG",1.36,103.82
"Singapore, SG",1.32,103.7
"Canberra, AU",-35.28,149.13
"Guangzhou, CN",23.12,113.25
"Frankfurt, DE",50.12,8.68
"Islamabad, PK",33.72,73.04
"Moscow, RU",55.75,37.62
"Bekasi, ID",-6.26,107.15
"Philadelphia, US",39.95,-75.16
"Tampa, US",27.77,-82.68
"Montreal, CA",45.51,-73.59
"Montreal, CA",45.51,-73.59
"Ashburn, US",39.02,-77.54
"Charlotte, US",35.23,-80.84
"Fair Harbor, US",40.64,-73.18
"Dallas, US",32.78,-96.81
"Singapore, SG",1.29,103.85
"Los Angeles, US",34.05,-118.24
"Virginia Beach, US",36.85,-75.98
"Spokane, US",47.68,-117.12
"Helsinki, FI",60.17,24.94
"Portland, US",45.52,-122.68
"Tampa, US",27.77,-82.68
"Houston, US",29.76,-95.36
"Falkenstein, DE",50.48,12.37
"Frankfurt, DE",50.11,8.68
"Dusseldorf, DE",51.22,6.78
"Frankfurt, DE",50.12,8.68
"Shanghai, CN",31.22,121.46
"Oslo, NO",59.91,10.75
"Ho Chi Minh City, VN",10.82,106.63
"Germantown, US",39.12,-77.56
"Los Angeles, US",34.05,-118.24
"Las Vegas, US",36.17,-115.14
"Chicago, US",41.85,-87.65
"Miami, US",25.77,-80.19
"Frankfurt, DE",50.12,8.68
"Zwolle, NL",52.51,6.09
"Tholen, NL",51.53,4.22
"Siauliai, LT",55.93,23.32
"Uithoorn, NL",52.24,4.83
"Spokane, US",47.68,-117.12
"Moscow, RU",55.75,37.62
"Maastricht, NL",50.87,6.06
"Amsterdam, NL",52.38,4.9
"Amsterdam, NL",52.37,4.9
"Kansas City, US",39.13,-94.56
"Arnhem, NL",51.98,5.91
"Rotterdam, NL",52.0,4.17
"Dallas, US",32.78,-96.81
"Fremont, US",37.55,-121.99
"Fremont, US",37.55,-121.99
"San Jose, US",37.34,-121.89
"Sao Paulo, BR",-23.55,-46.64
"Ashburn, US",39.04,-77.49
"Allentown, US",40.61,-75.49
"Chicago, US",41.85,-87.65
"Los Angeles, US",34.05,-118.24
"Zurich, CH",47.37,8.55
"Zurich, CH",47.37,8.55
"Santa Clarita, US",34.16,-118.65
"Surabaya, ID",-7.03,108.02
"Palm Bay, US",28.03,-80.59
"Mountain View, US",37.39,-122.08
"Amsterdam, NL",52.37,4.89
"Shenzhen, CN",22.55,114.07
"Moscow, RU",55.75,37.62
"Pune, IN",18.52,73.86
"Singapore, SG",1.29,103.85
"Ipatinga, BR",-19.52,-42.63
"Caotun, TW",23.97,120.97
"Ararangua, BR",-28.94,-49.5
"Sao Paulo, BR",-23.55,-46.64
"Barcelona, ES",41.39,2.16
"Seoul, KR",37.53,126.88
"Athens, GR",37.98,23.73
"Goes, NL",51.5,3.89
"Lagos, NG",6.45,3.39
"Istanbul, TR",40.9,29.26
"Los Angeles, US",34.05,-118.24
"Istanbul, TR",41.01,28.95
"Los Angeles, US",34.05,-118.24
"Cordoba, AR",-31.41,-64.19
"O'Fallon, US",38.74,-89.67
"Washington, US",38.9,-77.04
"Giessen, DE",50.4,8.82
"Falkenstein, DE",50.48,12.37
"Tokyo, JP",35.69,139.69
"Vilnius, LT",54.69,25.28
"Bucharest, RO",44.43,26.11
"Brussels, BE",50.85,4.35
"New Delhi, IN",28.62,77.21
"Chiba, JP",35.81,140.12
"Tokyo, JP",35.69,139.69
"Chicago, US",41.85,-87.65
"Amsterdam, NL",52.37,4.89
"Hong Kong, HK",22.46,114.0
"Hong Kong, HK",22.37,114.12
"Singapore, SG",1.29,103.85
"San Jose, US",37.34,-121.89
"Kansas City, US",39.1,-94.58
"San Jose, US",37.34,-121.89
"Amsterdam, NL",52.38,4.64
"Kansas City, US",39.1,-94.58
"Falkenstein, DE",50.48,12.37
"Hudiksvall, SE",61.73,17.11
"Vienna, AT",48.08,16.31
"Osaka, JP",34.84,135.51
"Chicago, US",41.85,-87.65
"Hong Kong, HK",22.28,114.17
"Dhaka, BD",23.79,90.37
"New York, US",40.71,-74.01
"Hong Kong, HK",22.37,114.14
"Lisbon, PT",38.69,-9.31
"Jakarta, ID",-6.18,106.83
"Frankfurt, DE",50.12,8.68
"Nuremberg, DE",49.45,11.08
"Amsterdam, NL",52.37,5.21
"Hong Kong, HK",22.28,114.17
"Minneapolis, US",44.98,-93.26
"Tokyo, JP",35.62,139.75
"Strasbourg, FR",48.58,7.75
"Jakarta, ID",-6.21,106.85
"Liberty Lake, US",47.68,-117.12
"Kansas City, US",39.1,-94.58
"Sinop, BR",-11.85,-55.65
"Vancouver, CA",49.25,-123.12
"Sofia, BG",42.7,23.32
"Toronto, CA",43.71,-79.4
"Frankfurt, DE",50.12,8.68
"Perth, AU",-31.95,115.86
"Fairfax, US",32.96,-81.24
"Bridgewater, US",40.51,-74.86
"Johor Bahru, MY",1.45,103.59
"Gainesville, US",34.19,-83.93
"Ashburn, US",39.04,-77.49
"Tokyo, JP",35.69,139.69
"Toronto, CA",43.71,-79.4
"Tokyo, JP",35.69,139.69
"West Palm Beach, US",26.6,-80.13
"Enschede, NL",52.36,6.66
"Carolina, PR",18.15,-65.83
"Kyiv, UA",50.45,30.52
"London, GB",51.51,-0.08
"Portland, US",45.55,-122.83
"Los Angeles, US",34.05,-118.24
"Chicago, US",41.85,-87.65
"Campo Grande, BR",-20.44,-54.65
"Ho Chi Minh City, VN",10.82,106.63
"Oradea, RO",47.05,21.92
"Sao Paulo, BR",-23.55,-46.64
"Bursa, TR",40.2,29.06
"Barcelona, ES",41.39,2.16
"Houston, US",29.76,-95.36
"Seattle, US",47.61,-122.33
"Morelia, MX",19.7,-101.18
"Amsterdam, NL",52.37,4.89
"Amsterdam, NL",52.38,4.9
"Amsterdam, NL",52.37,4.89
"Eygelshoven, NL",50.89,6.06
"Dhaka, BD",23.71,90.41
"Frankfurt, DE",50.12,8.68
"San Jose, US",37.32,-122.03
"Portland, US",45.52,-122.68
"Taipei, TW",25.01,121.47
"Montreal, CA",45.51,-73.59
"San Jose, US",37.34,-121.89
"Klagenfurt am Worthersee, AT",46.62,14.31
"Murcia, ES",37.85,-1.43
"Madrid, ES",40.56,-3.63
"Amsterdam, NL",52.37,4.89
"Arnhem, NL",51.98,5.91
"New York, US",40.71,-74.01
"Hong Kong, HK",22.28,114.17
"Taipei, TW",25.05,121.53
"Santiago, CL",-33.2,-70.67
"Campos dos Goytacazes, BR",-21.75,-41.33
"Sao Paulo, BR",-23.55,-46.64
"Nanjing, CN",32.06,118.78
"Bento Goncalves, BR",-29.17,-51.52
"Santiago, CL",-33.46,-70.65
"Madrid, ES",40.53,-3.65
"Singapore, SG",1.32,103.7
"Amsterdam, NL",52.3,4.69
"Dhaka, BD",23.79,90.37
"Almaty, KZ",43.25,76.91
"Secaucus, US",40.79,-74.06
"Guangzhou, CN",23.12,113.25
"Si Racha, TH",13.05,100.93
"Toronto, CA",43.71,-79.4
"Sandefjord, NO",59.17,10.21
"Shanghai, CN",31.22,121.46
"Jakarta, ID",-6.21,106.85
"Aachen, DE",50.78,6.08
"Tehran, IR",35.69,51.42
"Shanghai, CN",31.22,121.47
"Quezon City, PH",14.65,121.05
"Greeley, US",40.42,-104.71
"Vienna, AT",48.21,16.37
"Frankfurt, DE",50.12,8.68
"Paris, FR",48.85,2.35
"Dallas, US",32.78,-96.81
"Falkenstein, DE",50.48,12.37
"Tokyo, JP",35.65,139.73
"Paracin, RS",43.86,21.41
"Amsterdam, NL",52.37,4.89
"Warsaw, PL",52.23,21.01
"Boston, US",42.36,-71.06
"Warsaw, PL",52.23,21.05
"Santa Clara, US",37.35,-121.96
"London, GB",51.5,-0.13
"Taipei, TW",25.01,121.47
"Rijswijk, NL",52.04,4.33
"Frankfurt, DE",50.12,8.68
"Saint Petersburg, RU",59.94,30.31
"Helsinki, FI",60.17,24.94
"Ashburn, US",39.04,-77.49
"Limassol, CY",34.67,33.03
"Tokyo, JP",35.69,139.69
"Ouagadougou, BF",12.37,-1.53
"Amsterdam, NL",52.37,4.89
"Buffalo, US",42.89,-78.88
"Roubaix, FR",50.69,3.17
"Tokyo, JP",35.69,139.69
"Dallas, US",32.78,-96.81
"Enschede, NL",52.19,6.88
"Ottersum, NL",51.7,5.98
"Los Angeles, US",34.05,-118.24
"Singapore, SG",1.38,103.96
"Chicago, US",41.85,-87.65
"Columbus, US",39.96,-83.0
"Adelaide, AU",-34.93,138.6
"Los Angeles, US",34.05,-118.24
"Dallas, US",32.78,-96.81
"Singapore, SG",1.29,103.85
"Ashburn, US",39.04,-77.49
"Ashburn, US",39.04,-77.49
"Hillsboro, US",45.52,-122.99
"Sofia, BG",42.7,23.32
"Queretaro, MX",20.59,-100.39
"Dallas, US",32.78,-96.81
"San Pawl il-Bahar, MT",35.95,14.42
"Fairfax, US",32.96,-81.24
"Marseille, FR",43.3,5.38
"Wollongong, AU",-34.42,150.89
"Brisbane, AU",-27.47,153.03
"Dallas, US",32.78,-96.8
"Dushanbe, TJ",38.54,68.78
"Sydney, AU",-33.87,151.21
"Bucharest, RO",44.43,26.11
"Moordrecht, NL",51.99,4.67
"Chicago, US",41.85,-87.65
"Los Angeles, US",34.05,-118.24
"Ashburn, US",39.04,-77.49
"Jacksonville, US",30.33,-81.66
"Chicago, US",41.85,-87.65
"San Francisco, US",37.77,-122.42
"Brumunddal, NO",60.88,10.94
"Dallas, US",32.78,-96.81
"Sumedang, ID",-6.86,107.92
"Ho Chi Minh City, VN",10.82,106.63
"Oradea, RO",47.05,21.92
"Amsterdam, NL",52.47,4.81
"Ede, NL",52.03,5.66
"Kuala Lumpur, MY",3.14,101.69
"Rancharia, BR",-22.23,-50.89
"Bucharest, RO",44.49,26.06
"Kansas City, US",39.1,-94.58
"Jakarta, ID",-6.4,106.82
"Zagreb, HR",45.81,15.98
"New York, US",40.74,-74.0
"Batam, ID",1.15,104.02
"Zagreb, HR",45.81,15.98
"Fremont, US",37.55,-121.99
"Meicheng, CN",30.63,116.58
"Taipei, TW",25.05,121.53
"Hong Kong, HK",22.33,114.25
"New York, US",40.71,-74.01
"Vienna, AT",48.21,16.37
"Tianjin, CN",39.14,117.18
"Dallas, US",32.78,-96.81
"Princes Town, TT",10.27,-61.37
"Chengdu, CN",30.67,104.07
"Istanbul, TR",41.01,28.95
"Sofia, BG",42.7,23.32
"Sofia, BG",42.7,23.32
"Johor Bahru, MY",1.52,103.69
"Cotia, BR",-23.6,-46.92
"Singapore, SG",1.29,103.85
"Seoul, KR",37.53,126.88
"Oradea, RO",47.05,21.92
"Surabaya, ID",-7.25,112.75
"Sao Paulo, BR",-23.55,-46.64
"Frankfurt, DE",50.12,8.68
"Tehran, IR",35.69,51.42
"Hong Kong, HK",22.28,114.17
"Hong Kong, HK",22.28,114.17
"Hong Kong, HK",22.29,114.16
"Chicago, US",41.85,-87.65
"New York, US",40.71,-74.01
"Taipei, TW",25.05,121.53
"Karachi, PK",24.86,67.01
"Kansas City, US",39.1,-94.58
"San Juan, PR",18.47,-66.11
"Los Angeles, US",34.05,-118.24
"Singapore, SG",1.29,103.85
"Hong Kong, HK",22.28,114.17
"Ningbo, CN",29.88,121.55
"Singapore, SG",1.29,103.85
"Amsterdam, NL",52.37,4.89
"Bangkok, TH",13.75,100.5
"Mumbai, IN",19.07,72.88
"Mumbai, IN",19.07,72.88
"Los Angeles, US",34.05,-118.24
"Los Angeles, US",34.05,-118.24
"Caracas, VE",10.49,-66.88
"Shanghai, CN",31.22,121.46
"London, GB",51.51,-0.13
"Moscow, RU",55.75,37.62
"Poortugaal, NL",51.86,4.39
"Nuremberg, DE",49.45,11.08
"Allentown, US",40.61,-75.49
"Eygelshoven, NL",50.89,6.06
"Lubeck, DE",53.62,10.69
"Paris, FR",48.85,2.35
"Chaves, PT",41.74,-7.47
"London, GB",51.51,-0.13
"Vladivostok, RU",43.11,131.87
"New York, US",40.71,-74.01
"Nuremberg, DE",49.45,11.02
"Amsterdam, NL",52.38,4.64
"Paris, FR",48.85,2.35
"Amsterdam, NL",52.38,4.64
"Amsterdam, NL",52.37,4.89
"Piscataway, US",40.5,-74.4
"Amsterdam, NL",52.37,4.89
"London, GB",51.51,-0.13
"Frankfurt, DE",50.1,8.63
"Enschede, NL",52.16,6.74
"Paris, FR",48.85,2.35
"Warsaw, PL",52.23,21.01
"Sofia, BG",42.7,23.32
"Orleans, FR",47.87,1.9
"Tokyo, JP",35.69,139.69
"Amsterdam, NL",52.37,4.89
"Toronto, CA",43.71,-79.4
"Columbus, US",39.96,-83.0
"Koln, DE",50.93,6.95
"Luxembourg, LU",49.61,6.13
"Amsterdam, NL",52.37,4.89
"London, GB",51.51,-0.13
"Maastricht, NL",50.87,6.06
"Dallas, US",32.78,-96.81
"Ashburn, US",39.04,-77.49
"Zurich, CH",47.37,8.55
"London, GB",51.51,-0.13
"Gdansk, PL",54.35,18.65
"Malang, ID",-7.98,112.63
"Hong Kong, HK",22.28,114.17
"London, GB",51.51,-0.13
"Santa Clara, US",37.39,-121.96
"Fremont, US",37.55,-121.99
"Sofia, BG",42.7,23.32
"Singapore, SG",1.29,103.85
"Spokane, US",47.68,-117.12
"Dallas, US",32.78,-96.81
"Ashburn, US",39.04,-77.49
"Botevgrad, BG",42.68,23.7
"Durham, US",35.99,-78.9
"London, GB",51.51,-0.13
"Frankfurt, DE",50.12,8.68
"Sydney, AU",-33.87,151.21
"Dolynska, UA",48.12,32.78
"Meppel, NL",52.7,6.19
"Montreal, CA",45.51,-73.59
"Frankfurt, DE",50.12,8.68
"Chicago, US",41.85,-87.65
"Zagreb, HR",45.8,15.72
"Christchurch, NZ",-43.3,172.58
"Sydney, AU",-33.87,151.21
"Dallas, US",32.78,-96.81
"Miami, US",25.77,-80.19
"Atlanta, US",33.75,-84.39
"Toronto, CA",43.71,-79.4
"Reading, GB",51.41,-0.75
"Marseille, FR",43.3,5.38
"Puchong, MY",3.0,101.62
"Singapore, SG",1.29,103.85
"Moscow, RU",55.75,37.62
"Moscow, RU",55.75,37.62
"Braga, PT",41.4,-8.4
"Madrid, ES",40.42,-3.68
"Madrid, ES",40.42,-3.7
"Washington, US",38.9,-77.04
"Helsinki, FI",60.17,24.94
"Taichung, TW",24.15,120.68
"Amsterdam, NL",52.37,4.89
"Cyberjaya, MY",2.92,101.66
"London, GB",51.51,-0.13
"Sydney, AU",-33.87,151.21
"Essen, DE",51.52,6.93
"Tampa, US",27.95,-82.46
"Toronto, CA",43.71,-79.4
"Tainan, TW",22.99,120.21
"Sydney, AU",-33.87,151.21
"Hong Kong, HK",22.28,114.17
"Taichung, TW",24.15,120.68
"Phoenix, US",33.47,-112.0
"Ashburn, US",39.04,-77.49
"Dededo Village, GU",13.44,144.79
"Bier, US",39.54,-78.88
"Seoul, KR",37.58,126.89
"Auckland, NZ",-36.85,174.76
"Kansas City, US",39.1,-94.58
"Bern, CH",46.95,7.45
"Singapore, SG",1.28,103.79
"Sandefjord, NO",59.13,10.22
"Yekaterinburg, RU",56.86,60.62
"Fremont, US",37.55,-121.99
"Ankara, TR",39.92,32.85
"Sandefjord, NO",59.17,10.21
"Orenburg, RU",51.77,55.1
"Bento Goncalves, BR",-29.17,-51.52
"Los Angeles, US",34.05,-118.24
"Palo Alto, US",37.44,-122.14
"Taipei, TW",25.01,121.47
"Taipei, TW",25.05,121.53
"Almere Stad, NL",52.37,5.21
"Santiago, CL",-33.2,-70.67
"Sao Paulo, BR",-23.53,-46.79
"Curitiba, BR",-25.43,-49.27
"Moscow, RU",55.75,37.62
"Saint Petersburg, RU",59.94,30.31
"Athens, GR",37.98,23.73
"Hong Kong, HK",22.28,114.17
"Guangzhou, CN",23.12,113.25
"Warsaw, PL",52.23,21.01
"Lagos, NG",6.45,3.39
"Frankfurt, DE",50.11,8.68
"Sobralinho, PT",38.92,-9.03
"Bangkok, TH",13.75,100.5
"Bangkok, TH",13.75,100.5
"Shenzhen, CN",22.55,114.07
"Abbotsford, CA",49.06,-122.25
"Taipei, TW",25.05,121.53
"Tokyo, JP",35.69,139.69
"Middelburg, NL",51.65,3.92
"Kowloon, HK",22.32,114.18
"Hong Kong, HK",22.28,114.17
"Amsterdam, NL",52.37,4.89
"Pierron, US",38.78,-89.6
"Singapore, SG",1.29,103.85
"Aachen, DE",50.78,6.08
"Gostynin, PL",52.43,19.46
"Astana, KZ",51.18,71.45
"Frankfurt, DE",50.12,8.68
"Leipzig, DE",51.34,12.37
"Falkenstein, DE",50.48,12.37
"Nuremberg, DE",49.45,11.08
"Cherkasy, UA",49.44,32.06
"London, GB",51.51,-0.13
"Helsinki, FI",60.17,24.94
"Riga, LV",56.95,24.11
"Vienna, AT",48.3,16.36
"Timisoara, RO",45.75,21.23
"Timisoara, RO",45.75,21.23
"Milan, IT",45.46,9.19
"Nuremberg, DE",49.45,11.02
"Moscow, RU",55.75,37.62
"Timisoara, RO",45.75,21.23
"Frankfurt, DE",50.12,8.68
"Chisinau, MD",47.01,28.86
"Nuremberg, DE",49.45,11.08
"Falkenstein, DE",50.48,12.37
"Timisoara, RO",45.75,21.23
"Braga, PT",41.54,-8.62
"Amsterdam, NL",52.37,4.89
"Zurich, CH",47.37,8.55
"Brussels, BE",50.85,4.35
"Rotterdam, NL",52.11,4.38
"New York, US",40.71,-74.01
"Frankfurt, DE",50.12,8.68
"Berlin, DE",52.52,13.41
"Dublin, IE",53.33,-6.25
"Johannesburg, ZA",-26.12,28.21
"Minsk, BY",53.9,27.57
"Amsterdam, NL",52.37,4.89
"Paris, FR",48.85,2.35
"Berlin, DE",52.52,13.41
"Sandefjord, NO",59.17,10.21
"Frankfurt, DE",50.12,8.68
"Falkenstein, DE",50.48,12.37
"Graz, AT",47.22,15.62
"Amsterdam, NL",52.37,4.89
"Marseille, FR",43.3,5.38
"Warsaw, PL",52.23,21.01
"Berlin, DE",52.52,13.41
"Chisinau, MD",47.01,28.86
"Sofia, BG",42.7,23.32
"Lubeck, DE",53.62,10.69
"Riga, LV",56.95,24.11
"Moscow, RU",55.75,37.62
"Frankfurt, DE",50.12,8.68
"Portsmouth, GB",50.8,-1.09
"Amsterdam, NL",52.37,4.89
"Moscow, RU",55.75,37.62
"Frankfurt, DE",50.12,8.68
"London, GB",51.51,-0.13
"San Jose, US",37.34,-121.89
"Shinshiro, JP",35.07,137.7
"Utrecht, NL",52.21,5.29
"London, GB",51.51,-0.13
"Ponte San Pietro, IT",45.71,9.59
"Johor Bahru, MY",1.39,103.62
"Montpellier, FR",43.61,3.88
"Bangkok, TH",13.75,100.5
"Jakarta, ID",-6.21,106.85
"Jakarta, ID",-6.21,106.85
"Frankfurt, DE",50.12,8.68
"Berlin, DE",52.52,13.41
"Chicago, US",41.85,-87.65
"Lviv, UA",49.84,24.02
"Kyiv, UA",50.45,30.52
"Prague, CZ",50.09,14.42
"Baku, AZ",40.38,49.89
"Santiago, CL",-33.46,-70.65
"Amsterdam, NL",52.37,4.89
"Amsterdam, NL",52.35,4.78
"Munich, DE",48.14,11.58
"Helmond, NL",51.48,5.66
"London, GB",51.51,-0.13
"London, GB",51.51,-0.13
"Moscow, RU",55.75,37.62
"Marseille, FR",43.3,5.38
"Warsaw, PL",52.23,21.01
"Jakarta, ID",-6.21,106.85
"Boekel, NL",51.6,5.68
"Geneva, CH",46.2,6.15
"Duiven, NL",51.95,6.01
"Santiago, CL",-33.46,-70.65
"Berlin, DE",52.52,13.41
"Sandefjord, NO",59.17,10.21
"Rimini, IT",44.14,12.24
"Prague, CZ",50.09,14.42
"Hong Kong, HK",22.37,114.14
"Berlin, DE",52.52,13.41
"Paris, FR",48.85,2.35
"Berlin, DE",52.4,13.07
"Roubaix, FR",50.69,3.17
"Roubaix, FR",50.69,3.17
"Bangkok, TH",13.75,100.5
"Osaka, JP",34.69,135.5
"Frankfurt, DE",50.11,8.71
"Zurich, CH",47.37,8.55
"Tours, FR",47.38,0.68
"Vienna, AT",48.3,16.36
"Prague, CZ",50.09,14.42
"Arezzo, IT",43.46,11.88
"Denpasar, ID",-8.72,115.17
"Lelystad, NL",52.51,5.48
"Dublin, IE",53.33,-6.25
"Amsterdam, NL",52.36,4.89
"Montreal, CA",45.51,-73.59
"San Jose, US",37.34,-121.89
"Ashburn, US",39.04,-77.49
"Singapore, SG",1.29,103.85
"Tokyo, JP",35.69,139.69
"Taichung, TW",24.15,120.68
"Kemerovo, RU",55.35,86.1
"Frankfurt, DE",50.11,8.68
"Singapore, SG",1.29,103.85
"Atlanta, US",33.75,-84.39
"Ashburn, US",39.04,-77.49
"Seattle, US",47.61,-122.33
"Elgin, US",42.09,-87.98
"Singapore, SG",1.29,103.85
"San Jose, US",37.34,-121.89
"New York, US",40.71,-74.01
"Ashburn, US",39.04,-77.49
"Stockholm, SE",59.33,18.07
"Falkenstein, DE",50.48,12.37
"New Plymouth, NZ",-39.07,174.08
"Salt Lake City, US",40.76,-111.89
"Wodonga, AU",-36.07,146.92
"Panama, PA",8.99,-79.52
"Ashburn, US",39.04,-77.49
"Paraparaumu, NZ",-40.92,175.02
"Houston, US",29.76,-95.36
"Mandurah, AU",-32.53,115.72
"Tel Aviv, IL",32.08,34.78
"Moscow, RU",55.75,37.62
"Moscow, RU",55.75,37.62
"Sydney, AU",-33.87,151.21
"Oradea, RO",47.05,21.92
"Dallas, US",32.78,-96.81
"Timaru, NZ",-44.4,171.25
"Sydney, AU",-33.87,151.21
"Almaty, KZ",43.25,76.91
"Tampa, US",27.95,-82.46
"Ashburn, US",39.04,-77.49
"Hanoi, VN",21.02,105.84
"Long Beach, US",33.74,-118.39
"Atlanta, US",33.75,-84.39
"Frankfurt, DE",50.11,8.71
"Dhaka, BD",23.87,90.4
"London, GB",51.51,-0.13
"Amsterdam, NL",52.37,4.89
"Amsterdam, NL",52.37,4.89
"Ho Chi Minh City, VN",10.82,106.63
"Indianapolis, US",39.77,-86.16
"Boulder, US",40.17,-105.1
"Sao Paulo, BR",-23.55,-46.64
"Rotterdam, NL",52.04,4.64
"Colorado Springs, US",38.83,-104.82
"London, GB",51.51,-0.13
"Santiago, CL",-33.46,-70.65
"Yekaterinburg, RU",56.86,60.62
"Istanbul, TR",41.04,29.18
"Uithoorn, NL",52.24,4.83
"Utrecht, NL",52.09,5.12
"Gondomar, PT",41.14,-8.53
"Hong Kong, HK",22.28,114.17
"Tokyo, JP",35.68,139.75
"Osasco, BR",-23.44,-46.92
"Lima, PE",-12.04,-77.03
"Frankfurt, DE",50.12,8.68
"Tijucas, BR",-27.24,-48.63
"Buenos Aires, AR",-34.61,-58.38
"Gondomar, PT",41.14,-8.53
"Hong Kong, HK",22.28,114.17
"Buenos Aires, AR",-34.61,-58.38
"Beers, NL",51.73,5.83
"Passo Fundo, BR",-28.26,-52.41
"Moscow, RU",55.75,37.62
"Moscow, RU",55.75,37.62
"Taipei, TW",25.05,121.53
"Fremont, US",37.55,-121.99
"Tsuen Wan, HK",22.37,114.11
"Yerevan, AM",40.27,44.63
"Rome, IT",41.89,12.51
"Tehran, IR",35.69,51.42
"Los Angeles, US",34.05,-118.24
"Riga, LV",56.95,24.11
"Vienna, AT",48.21,16.37
"O'Fallon, US",38.74,-89.67
"Montreal, CA",45.51,-73.59
"Bangkok, TH",13.75,100.5
"Budapest, HU",47.5,19.04
"Helsinki, FI",60.17,24.94
"Brussels, BE",50.85,4.35
"Mumbai, IN",19.07,72.88
"Helsinki, FI",60.17,24.94
"Stockholm, SE",59.4,17.94
"Dallas, US",32.78,-96.81
"Nuremberg, DE",49.45,11.02
"Nuremberg, DE",49.45,11.08
"Helsinki, FI",60.17,24.94
"Dhaka, BD",23.79,90.42
"Buffalo, US",42.89,-78.88
"Singapore, SG",1.34,103.89
"Novosibirsk, RU",55.04,82.93
"Singapore, SG",1.3,103.79
"Osaka, JP",34.69,135.5
"Amsterdam, NL",52.37,4.89
"Birmingham, GB",52.41,-1.78
"Lisbon, PT",38.73,-9.15
"Rodos, GR",36.44,28.22
"Dublin, IE",53.33,-6.25
"Singapore, SG",1.29,103.85
"De Kwakel, NL",52.24,4.79
"Stockholm, SE",59.4,17.94
"Mumbai, IN",19.07,72.88
"Stockholm, SE",59.33,18.07
"Tokyo, JP",35.69,139.69
"Khmelnytskyi, UA",49.42,26.98
"San Jose, US",37.34,-121.89
"Uden, NL",51.66,5.62
"Ashburn, US",39.04,-77.49
"Gaithersburg, US",39.14,-77.2
"Ashburn, US",39.04,-77.49
"Sydney, AU",-33.78,150.93
"Krimpen aan den IJssel, NL",51.92,4.6
"Amsterdam, NL",52.37,4.89
"Moscow, RU",55.75,37.62
"Milan, IT",45.46,9.19
"Moscow, RU",55.75,37.62
"Timisoara, RO",45.75,21.23
"Timisoara, RO",45.75,21.23
"Frankfurt, DE",50.12,8.68
"Tokyo, JP",35.69,139.69
"Oradea, RO",47.05,21.92
"London, GB",51.51,-0.13
"Bucharest, RO",44.43,26.11
"Dronten, NL",52.53,5.72
"Stockholm, SE",59.33,18.07
"Yangon, MM",16.81,96.16
"Helsinki, FI",60.17,24.94
"Madrid, ES",40.42,-3.7
"Novi Travnik, BA",44.17,17.66
"Mumbai, IN",19.07,72.88
"Sydney, AU",-33.78,150.93
"Sydney, AU",-33.87,151.21
"Ashburn, US",39.04,-77.49
"Limburg an der Lahn, DE",50.58,8.05
"Santa Clara, US",37.35,-121.96
"Tula, RU",54.2,37.62
"Ashburn, US",39.04,-77.49
"Marseille, FR",43.3,5.38
"Fes, MA",34.04,-5.0
"Hong Kong, HK",22.28,114.17
"Worcester, GB",52.19,-2.22
"Muscat, OM",23.58,58.41
"Falkenstein, DE",50.48,12.37
"Bangkok, TH",13.75,100.5
"Tel Aviv, IL",32.08,34.78
"Dallas, US",32.78,-96.81
"Amsterdam, NL",52.37,4.89
"Singapore, SG",1.3,103.79
"Frankfurt, DE",50.12,8.68
"Paris, FR",48.78,2.19
"Hong Kong, HK",22.37,114.14
"Atlanta, US",33.95,-84.55
"Dublin, IE",53.32,-6.31
"Arras, FR",50.29,2.78
"Terneuzen, NL",51.34,3.83
"Dalles, US",45.59,-121.18
"Vitry-sur-Seine, FR",48.79,2.4
"Tehran, IR",35.69,51.42
"Roubaix, FR",50.69,3.17
"Miami, US",25.77,-80.19
"Singapore, SG",1.29,103.85
"Amsterdam, NL",52.37,4.89
"Amsterdam, NL",52.37,4.89
"Seoul, KR",37.57,126.98
"Roubaix, FR",50.69,3.17
"Dalles, US",45.59,-121.18
"Hyderabad, IN",17.13,78.41
"Shanghai, CN",31.22,121.46
"Munich, DE",48.14,11.58
"Rapid City, US",44.08,-103.23
"Tokyo, JP",35.69,139.69
"San Jose, US",37.34,-121.89
"Cyberjaya, MY",2.92,101.66
"Kansas City, US",39.1,-94.58
"Taipei, TW",25.05,121.53
"Gouda, NL",52.02,4.71
"Taichung, TW",24.15,120.68
"Rotterdam, NL",52.0,4.17
"Frankfurt, DE",50.12,8.68
"Yogyakarta, ID",-7.8,110.36
"Logrono, ES",42.47,-2.45
"Tehran, IR",35.69,51.42
"Hillsboro, US",45.52,-122.99
"Zagreb, HR",45.74,16.03
"Falkenstein, DE",50.48,12.37
"Seattle, US",47.61,-122.33
"Los Angeles, US",34.05,-118.24
"Emeryville, US",37.83,-122.29
"Boardman, US",45.84,-119.7
"Verdun, FR",49.16,5.38
"Jacksonville, US",30.33,-81.66
"Los Angeles, US",34.05,-118.24
"Houston, US",29.76,-95.36
"Montreal, CA",45.51,-73.59
"Charlotte, US",35.23,-80.84
"South Fulton, US",33.4,-84.57
"Ashburn, US",39.04,-77.49
"Durham, US",35.99,-78.9
"Brisbane, AU",-27.47,153.03
"Malang, ID",-7.98,112.63
"Amsterdam, NL",52.37,4.89
"Amsterdam, NL",52.37,4.89
"West Palm Beach, US",26.82,-80.14
"Honiara, SB",-9.43,159.95
"Santa Fe, US",35.69,-105.94
"York, GB",53.96,-1.08
"Paris, FR",48.85,2.35
"Johannesburg, ZA",-26.2,28.04
"Oslo, NO",59.91,10.75
"Jacksonville, US",30.33,-81.66
"Frankfurt, DE",50.12,8.68
"Frankfurt, DE",50.11,8.68
"Virginia Beach, US",36.8,-76.01
"Budapest, HU",47.5,19.04
"Curitiba, BR",-25.43,-49.27
"Vienna, AT",48.3,16.36
"Amsterdam, NL",52.37,4.89
"Bucharest, RO",44.42,26.17
"Chengdu, CN",30.67,104.07
"Moscow, RU",55.75,37.62
"Charleston, US",32.85,-79.97
"Tokyo, JP",35.69,139.69
"Moscow, RU",55.75,37.62
"Fontenay-sous-Bois, FR",48.85,2.48
"Amsterdam, NL",52.38,4.64
"Sao Paulo, BR",-23.6,-46.92
"Hilton Head Island, US",32.43,-80.67
"Warsaw, PL",52.23,21.01
"Zagreb, HR",45.81,15.98
"Frankfurt, DE",50.11,8.68
"Ankara, TR",39.92,32.85
"Cork, IE",51.9,-8.47
"Boulder, US",40.17,-105.1
"Auckland, NZ",-36.85,174.76
"Ashburn, US",39.04,-77.49
"New Taipei City, TW",25.06,121.46
"Tokyo, JP",35.69,139.69
"Singapore, SG",1.36,103.82
"Sint-Truiden, BE",50.82,5.19
"Los Angeles, US",34.05,-118.24
"Ipatinga, BR",-19.52,-42.63
"Auckland, NZ",-36.85,174.76
"Oradea, RO",47.05,21.92
"Santiago, CL",-33.46,-70.65
"Sofia, BG",42.7,23.32
"Fremont, US",37.55,-121.99
"Vladivostok, RU",43.11,131.87
"Lausanne, CH",46.46,6.84
"Geraldton, AU",-28.78,114.61
"Hong Kong, HK",22.33,114.21
"Hong Kong, HK",22.28,114.17
"Hong Kong, HK",22.28,114.17
"Santiago, CL",-33.2,-70.67
"La Paz, BO",-16.5,-68.15
"Santiago, CL",-33.46,-70.65
"Sao Paulo, BR",-23.55,-46.64
"Feira de Santana, BR",-12.27,-38.97
"Santiago, CL",-33.2,-70.67
"Rotterdam, NL",51.92,4.48
"Hong Kong, HK",22.28,114.17
"New Taipei City, TW",25.06,121.46
"Berlin, DE",52.52,13.41
"Sofia, BG",42.7,23.32
"Panama, PA",8.99,-79.52
"Lipetsk, RU",52.59,39.55
"Ningbo, CN",29.88,121.55
"Hong Kong, HK",22.37,114.14
"Hong Kong, HK",22.28,114.17
"Wuhan, CN",30.58,114.27
"Gouda, NL",52.02,4.71
"New York, US",40.71,-74.01
"Des Moines, US",41.63,-93.71
"Mesa, US",33.42,-111.82
"Los Angeles, US",34.05,-118.24
"Los Angeles, US",34.05,-118.24
"Falkenstein, DE",50.48,12.37
"Almere Stad, NL",52.37,5.21
"Beijing, CN",39.91,116.4
"Singapore, SG",1.29,103.85
"Tokyo, JP",35.69,139.69
"Vladivostok, RU",43.11,131.87
"Novosibirsk, RU",55.02,82.93
"Frankfurt, DE",50.12,8.68
"London, GB",51.51,-0.13
"Amsterdam, NL",52.37,4.89
"Ogden, US",41.26,-111.98
"Nuremberg, DE",49.45,11.02
"Amsterdam, NL",52.37,4.89
"Helsinki, FI",60.17,24.94
"Cape Town, ZA",-33.93,18.42
"Fremont, US",37.55,-121.99
"Nuremberg, DE",49.45,11.08
"Maastricht, NL",50.87,6.06
"Frankfurt, DE",50.12,8.68
"Milan, IT",45.32,9.2
"Singapore, SG",1.38,103.96
"Warsaw, PL",52.23,21.01
"Saint Petersburg, RU",59.94,30.31
"Riyadh, SA",24.69,46.72
"Ashburn, US",39.04,-77.49
"Monza, IT",45.71,9.59
"Singapore, SG",1.29,103.85
"Obihiro, JP",42.92,143.2
"Frankfurt, DE",50.12,8.68
"Amsterdam, NL",52.37,4.89
"Chisinau, MD",47.01,28.86
"Berlin, DE",52.52,13.41
"Amsterdam, NL",52.37,4.89
"Amsterdam, NL",52.38,4.9
"Amsterdam, NL",52.38,4.9
"Roubaix, FR",50.69,3.17
"Sandefjord, NO",59.17,10.21
"Bishkek, KG",42.87,74.59
"Chicago, US",41.85,-87.65
"Tunis, TN",36.82,10.17
"Tallinn, EE",59.44,24.75
"London, GB",51.44,0.15
"Frankfurt, DE",50.12,8.68
"Maastricht, NL",50.87,6.06
"Frankfurt, DE",50.12,8.68
"Moscow, RU",55.75,37.62
"Falkenstein, DE",50.48,12.37
"Coventry, GB",52.41,-1.51
"Bucharest, RO",44.43,26.11
"Amsterdam, NL",52.38,4.64
"Reykjavik, IS",64.14,-21.9
"Atlanta, US",33.95,-84.55
"Perth, AU",-31.95,115.86
"Chiba, JP",35.81,140.12
"Hong Kong, HK",22.52,114.12
"Windhoek, NA",-22.56,17.08
"Moscow, RU",55.75,37.62
"Reykjavik, IS",64.14,-21.9
"Santa Clara, US",37.35,-121.96
"Tokyo, JP",35.69,139.69
"Bucharest, RO",44.43,26.11
"Frankfurt, DE",50.11,8.68
"Amsterdam, NL",52.38,4.9
"Amsterdam, NL",52.37,4.89
"Kemerovo, RU",55.35,86.1
"Dallas, US",32.78,-96.81
"Ashburn, US",39.04,-77.49
"Varberg, SE",57.11,12.25
"Elmira, CA",43.6,-80.55
"Dallas, US",32.78,-96.81
"New York, US",40.71,-74.01
"Houston, US",29.76,-95.36
"Tel Aviv, IL",32.08,34.78
"Columbus, US",39.96,-83.0
"Larnaca, CY",34.92,33.63
"Spokane, US",47.68,-117.12
"Osaka, JP",34.69,135.5
"Seattle, US",47.61,-122.33
"Helsinki, FI",60.17,24.94
"Los Angeles, US",34.05,-118.24
"Los Angeles, US",34.05,-118.24
"Seattle, US",47.61,-122.33
"Dallas, US",32.78,-96.81
"San Jose, US",37.34,-121.89
"New York, US",40.71,-74.01
"La Paz, BO",-16.5,-68.15
"Lauterbourg, FR",48.98,8.18
"Frankfurt, DE",50.11,8.68
"Barreiro, PT",38.66,-9.07
"Brasilia, BR",-15.78,-47.93
"Miami, US",25.77,-80.19
"Kansas City, US",39.1,-94.58
"Barcelona, ES",41.39,2.16
"San Jose, US",37.34,-121.89
"New York, US",40.71,-74.01
"Tampa, US",27.95,-82.46
"Bengaluru, IN",12.97,77.59
"Frankfurt, DE",50.12,8.68
"Frankfurt, DE",50.12,8.68
"Ho Chi Minh City, VN",10.82,106.63
"Riga, LV",56.95,24.11
"Ashburn, US",39.04,-77.49
"Oegstgeest, NL",52.18,4.47
"Alpharetta, US",34.08,-84.29
"Frankfurt, DE",50.12,8.68
"Frankfurt, DE",50.12,8.68
"Barquisimeto, VE",10.06,-69.36
"Amsterdam, NL",52.37,4.89
"Amsterdam, NL",52.37,4.89
"Amsterdam, NL",52.37,4.89
"Arhus, DK",56.16,10.21
"Houston, US",29.76,-95.36
"Karlovac, HR",45.49,15.55
"Khandwa, IN",21.82,76.35
"Napier, NZ",-39.49,176.91
"San Jose, CR",9.91,-84.03
"Blacktown, AU",-33.8,150.88
"Tampa, US",27.95,-82.46
"Fremont, US",37.55,-121.99
"Tokyo, JP",35.61,139.73
"Hong Kong, HK",22.28,114.17
"New York, US",40.71,-74.01
"Singapore, SG",1.37,103.98
"Berlin, DE",52.52,13.41
"Philadelphia, US",40.08,-75.46
"Chicago, US",41.85,-87.65
"Los Angeles, US",34.05,-118.24
"Los Angeles, US",34.05,-118.24
"Cape Town, ZA",-33.93,18.42
"Sao Paulo, BR",-23.55,-46.64
"Istanbul, TR",41.01,28.95
"Sofia, BG",42.7,23.32
"Fremont, US",37.55,-121.99
"New York, US",40.71,-74.01
"Shillong, IN",25.57,91.88
"Taquara, BR",-29.65,-50.78
"Taipei, TW",25.05,121.53
"Tirana, AL",41.33,19.82
"Sao Paulo, BR",-23.55,-46.64
"Belem, BR",-1.46,-48.5
"Santiago, CL",-33.46,-70.65
"Taichung, TW",24.15,120.68
"Hong Kong, HK",22.28,114.17
"Dubai, AE",25.08,55.31
"Hong Kong, HK",22.28,114.17
"Saint Petersburg, RU",59.94,30.31
"Moscow, RU",55.75,37.62
"Hong Kong, HK",22.28,114.17
"Hong Kong, HK",22.28,114.17
"Shiyan, CN",32.65,110.78
"Johor Bahru, MY",1.39,103.62
"Beijing, CN",39.91,116.4
"Beijing, CN",39.91,116.4
"Jakarta, ID",-6.29,106.72
"Tehran, IR",35.69,51.42
"Tokyo, JP",35.69,139.69
"Guangzhou, CN",23.12,113.25
"Singapore, SG",1.34,103.89
"Saint Petersburg, RU",59.94,30.31
"London, GB",51.51,-0.13
"Moscow, RU",55.75,37.62
"Tehran, IR",35.69,51.42
"Hong Kong, HK",22.28,114.17
"Oradea, RO",47.05,21.92
"Bengaluru, IN",12.97,77.59
"Taipei, TW",25.01,121.47
"Valenciennes, FR",50.36,3.53
"Beijing, CN",39.91,116.4
"Chelyabinsk, RU",55.16,61.43
"Yuzhno-Sakhalinsk, RU",46.95,142.74
"Helsinki, FI",60.17,24.94
"Vilnius, LT",54.69,25.28
"Marseille, FR",43.3,5.38
"Dallas, US",32.78,-96.81
"Amsterdam, NL",52.37,4.89
"Oradea, RO",47.05,21.92
"Chalons-en-Champagne, FR",48.95,4.37
"Nuremberg, DE",49.45,11.08
"Helsinki, FI",60.17,24.94
"Stockholm, SE",59.33,18.07
"Stockholm, SE",59.33,18.07
"Brussels, BE",50.85,4.35
"Bucharest, RO",44.43,26.11
"Tirana, AL",41.33,19.82
"Palermo, IT",38.12,13.36
"Bengaluru, IN",13.23,77.58
"Tallinn, EE",59.44,24.75
"Tokyo, JP",35.67,139.7
"Montreal, CA",45.51,-73.59
"Berlin, DE",52.52,13.41
"Eindhoven, NL",51.44,5.48
"Helsinki, FI",60.17,24.94
"Baku, AZ",40.38,49.89
"Maastricht, NL",50.89,6.05
"Singapore, SG",1.3,103.79
"Koln, DE",50.93,6.95
"Constanta, RO",44.32,28.6
"Logrono, ES",42.47,-2.45
"La Chaux-de-Fonds, CH",47.1,6.83
"Oradea, RO",47.05,21.92
"Madrid, ES",40.42,-3.68
"Seoul, KR",37.57,126.98
"Paris, FR",48.85,2.35
"Karlsruhe, DE",49.0,8.39
"Khabarovsk, RU",48.46,135.1
"Pune, IN",18.52,73.86
"Montreal, CA",45.51,-73.59
"Amsterdam, NL",52.37,4.89
"Helsinki, FI",60.17,24.94
"Bytom, PL",50.35,18.93
"Bratislava, SK",48.15,17.11
"Siauliai, LT",55.93,23.32
"Tsuen Wan, HK",22.37,114.11
"Singapore, SG",1.29,103.85
"Goes, NL",51.5,3.89
"Jakarta, ID",-6.21,106.85
"Kuala Lumpur, MY",3.14,101.69
"Hong Kong, HK",22.28,114.17
"Almere Stad, NL",52.37,5.21
"Sofia, BG",42.7,23.32
"Sidon, LB",33.56,35.37
"Yuzhno-Sakhalinsk, RU",46.95,142.74
"New York, US",40.71,-74.01
"Gorredijk, NL",53.01,6.06
"Istanbul, TR",41.01,28.95
"Frankfurt, DE",50.12,8.68
"Singapore, SG",1.33,103.72
"Amsterdam, NL",52.37,4.89
"San Jose, US",37.34,-121.89
"Singapore, SG",1.29,103.85
"Tokyo, JP",35.69,139.69
"Denver, US",39.74,-104.98
"Tel Aviv, IL",32.09,34.89
"Tel Aviv, IL",32.08,34.78
"Macerata, IT",43.3,13.45
"Secaucus, US",40.79,-74.06
"Warsaw, PL",52.23,21.01
"Hong Kong, HK",22.52,114.12
"Amsterdam, NL",52.37,4.89
"Chiba, JP",35.81,140.12
"Winchester, GB",51.07,-1.32
"Panama, PA",8.99,-79.52
"Tokyo, JP",35.69,139.69
"Sydney, AU",-33.87,151.21
"Frankfurt, DE",50.12,8.68
"Lima, US",40.74,-84.11
"Fremont, US",37.55,-121.99
"Tokyo, JP",35.63,139.79
"Amsterdam, NL",52.37,4.89
"Abu Dhabi, AE",24.43,54.62
"Jakarta, ID",-6.21,106.85
"Amsterdam, NL",52.37,4.89
"Vilnius, LT",54.69,25.28
"Roubaix, FR",50.69,3.17
"San Jose, US",37.34,-121.89
"Vilnius, LT",54.69,25.28
"Frankfurt, DE",50.12,8.68
"Frankfurt, DE",50.12,8.68
"Falkenstein, DE",50.48,12.37
"Tehran, IR",35.69,51.42
"Oradea, RO",47.05,21.92
"Falkenstein, DE",50.48,12.37
"London, GB",51.51,-0.13
"Montreal, CA",45.51,-73.59
"Palermo, IT",38.12,13.36
"Dalles, US",45.59,-121.18
"Tokyo, JP",35.69,139.69
"Manchester, GB",53.48,-2.24
"Bucharest, RO",44.43,26.11
"Frankfurt, DE",50.12,8.68
"Groningen, NL",53.22,6.57
"Sydney, AU",-33.87,151.21
"Los Angeles, US",34.05,-118.24
"Helmond, NL",51.48,5.66
"Frankfurt, DE",50.12,8.68
"Kampala, UG",0.32,32.58
"Pati, ID",-6.76,111.04
"Frankfurt, DE",50.12,8.68
"Chisinau, MD",47.01,28.86
"Ashburn, US",39.04,-77.49
"Prague, CZ",50.09,14.42
"Groningen, NL",53.0,6.56
"Almere Stad, NL",52.37,5.21
"Singapore, SG",1.32,103.7
"Belgrade, RS",44.8,20.47
"New York, US",40.71,-74.01
"Tokyo, JP",35.62,139.75
"Tokyo, JP",35.69,139.69
"Torshavn, FO",62.01,-6.77
"Vienna, AT",48.21,16.37
"Singapore, SG",1.32,103.7
"Leinfelden-Echterdingen, DE",48.69,9.17
"Warsaw, PL",52.23,21.01
"Amsterdam, NL",52.39,4.66
"Santa Fe, US",35.69,-105.94
"Moscow, RU",55.9,37.43
"Bucharest, RO",44.43,26.11
"Namur, BE",50.47,4.87
"Daejeon, KR",36.35,127.38
"Madrid, ES",40.43,-3.62
"Gondomar, PT",41.14,-8.53
"London, GB",51.51,-0.13
"Hong Kong, HK",22.28,114.17
"Lille, FR",50.7,3.13
"Buffalo, US",42.89,-78.88
"Spokane, US",47.67,-117.24
"Kansas City, US",39.1,-94.58
"Madrid, ES",40.43,-3.62
"Tallinn, EE",59.44,24.75
"Falkenstein, DE",50.48,12.37
"Los Angeles, US",34.05,-118.24
"Spokane, US",47.68,-117.12
"Liberty Lake, US",47.68,-117.12
"Ashburn, US",39.04,-77.49
"Karachi, PK",24.86,67.01
"Singapore, SG",1.29,103.85
"Kyiv, UA",50.45,30.52
"Bern, CH",46.95,7.45
"Moscow, RU",55.75,37.62
"El Segundo, US",33.92,-118.42
"Philadelphia, US",39.95,-75.16
"Oakland, US",37.8,-122.27
"Luxembourg, LU",49.61,6.13
"Frankfurt, DE",50.12,8.68
"Nanjing, CN",32.06,118.78
"Johor Bahru, MY",1.47,103.76
"Hyderabad, IN",17.13,78.41
"Hyderabad, IN",17.13,78.41
"Bucharest, RO",44.43,26.11
"Tallinn, EE",59.44,24.75
"Buffalo, US",42.89,-78.88
"New York, US",40.86,-74.16
"Oklahoma City, US",35.47,-97.52
"Siauliai, LT",55.93,23.32
"Melbourne, AU",-37.81,144.96
"Reykjavik, IS",64.14,-21.9
"Semarang, ID",-8.72,116.26
"Lelystad, NL",52.51,5.48
"Kansas City, US",39.1,-94.58
"Helsinki, FI",60.17,24.94
"Joplin, US",36.87,-94.37
"Van Wert, US",40.87,-84.58
"Boulder, US",40.17,-105.1
"Islamabad, PK",33.72,73.04
"Chongqing, CN",29.56,106.56
"Guwahati, IN",26.18,91.75
"Krasnodar, RU",45.05,38.98
"Amsterdam, NL",52.37,4.89
"Miami, US",25.77,-80.19
"Cyberjaya, MY",2.92,101.66
"Guangzhou, CN",23.12,113.25
"Singapore, SG",1.29,103.85
"Sydney, AU",-33.87,151.21
"Cotia, BR",-23.6,-46.92
"Taipei, TW",25.05,121.53
"Palo Alto, US",37.44,-122.14
"Santiago, CL",-33.46,-70.65
"Sao Paulo, BR",-23.55,-46.64
"Sao Paulo, BR",-23.55,-46.64
"Santiago, CL",-33.46,-70.65
"Osasco, BR",-23.53,-46.79
"Curitiba, BR",-25.43,-49.27
"Sao Carlos, BR",-22.02,-47.89
"Queluz, PT",38.76,-9.25
"Port-Vila, VU",-17.74,168.31
"Joinville, BR",-26.3,-48.85
"Tokyo, JP",35.69,139.69
"Los Angeles, US",34.05,-118.24
"Hong Kong, HK",22.37,114.14
"Los Angeles, US",34.05,-118.24
"O'Fallon, US",38.74,-89.67
"Los Angeles, US",34.05,-118.24
"Frankfurt, DE",50.12,8.68
"Chisinau, MD",47.01,28.86
"Ha Long, VN",20.95,107.07
"Taipei, TW",25.05,121.53
